[
  {
    "name": "Medellín",
    "state": "Antioquia",
    "coordinate": {
      "latitude": 6.2518,
      "longitude": -75.5636
    },
    "geohash32": "d3478d07",
    "geohash64": "0s-0d-11-1n-0d-00-0w",
    "geohash128": "1h-1k-0f-23-00-0w"
  },
  {
    "name": "Abejorral",
    "state": "Antioquia",
    "coordinate": {
      "latitude": 5.7893,
      "longitude": -75.4273
    },
    "geohash32": "d342gtgt",
    "geohash64": "0s-0d-10-17-1t-0z-14",
    "geohash128": "1h-1k-04-3y-1g-34"
  },
  {
    "name": "Abriaquí",
    "state": "Antioquia",
    "coordinate": {
      "latitude": 6.6315,
      "longitude": -76.0644
    },
    "geohash32": "d31vtp5x",
    "geohash64": "0s-0d-0f-1w-1p-0c-1n",
    "geohash128": "1h-1h-3r-2e-15-3n"
  },
  {
    "name": "Alejandría",
    "state": "Antioquia",
    "coordinate": {
      "latitude": 6.3774,
      "longitude": -75.1406
    },
    "geohash32": "d34s60ur",
    "geohash64": "0s-0d-16-03-00-1p-0w",
    "geohash128": "1h-1k-1h-1h-0u-2w"
  },
  {
    "name": "Amagá",
    "state": "Antioquia",
    "coordinate": {
      "latitude": 6.04,
      "longitude": -75.7032
    },
    "geohash32": "d344m7d9",
    "geohash64": "0s-0d-11-09-17-0s-15",
    "geohash128": "1h-1k-09-0t-3d-15"
  },
  {
    "name": "Amalfi",
    "state": "Antioquia",
    "coordinate": {
      "latitude": 6.9102,
      "longitude": -75.0776
    },
    "geohash32": "d34x79fn",
    "geohash64": "0s-0d-17-0m-19-0x-0m",
    "geohash128": "1h-1k-1u-1u-1f-2m"
  },
  {
    "name": "Andes",
    "state": "Antioquia",
    "coordinate": {
      "latitude": 5.6561,
      "longitude": -75.8788
    },
    "geohash32": "d3401mdt",
    "geohash64": "0s-0d-10-00-1m-0t-16",
    "geohash128": "1h-1k-00-0d-3d-36"
  },
  {
    "name": "Angelópolis",
    "state": "Antioquia",
    "coordinate": {
      "latitude": 6.1107,
      "longitude": -75.7092
    },
    "geohash32": "d344v0qj",
    "geohash64": "0s-0d-11-0e-10-1e-06",
    "geohash128": "1h-1k-09-2s-0q-26"
  },
  {
    "name": "Angostura",
    "state": "Antioquia",
    "coordinate": {
      "latitude": 6.8851,
      "longitude": -75.3347
    },
    "geohash32": "d34rjtqu",
    "geohash64": "0s-0d-15-1s-1t-1e-1c",
    "geohash128": "1h-1k-1g-0f-1q-3c"
  },
  {
    "name": "Anorí",
    "state": "Antioquia",
    "coordinate": {
      "latitude": 7.1833,
      "longitude": -75.0667
    },
    "geohash32": "d368ggdj",
    "geohash64": "0s-0d-1k-07-1g-0t-05",
    "geohash128": "1h-1m-0h-3v-3d-25"
  },
  {
    "name": "Tununguá",
    "state": "Boyacá",
    "coordinate": {
      "latitude": 5.7297,
      "longitude": -73.9414
    },
    "geohash32": "d352t7j9",
    "geohash64": "0s-0d-18-1d-17-12-15",
    "geohash128": "1h-1k-25-29-3j-15"
  },
  {
    "name": "Anza",
    "state": "Antioquia",
    "coordinate": {
      "latitude": 6.3032,
      "longitude": -75.8538
    },
    "geohash32": "d345cgky",
    "geohash64": "0s-0d-11-0p-1g-15-1v",
    "geohash128": "1h-1k-0b-2v-3k-3v"
  },
  {
    "name": "Apartadó",
    "state": "Antioquia",
    "coordinate": {
      "latitude": 7.883,
      "longitude": -76.6259
    },
    "geohash32": "d33sb749",
    "geohash64": "0s-0d-0y-05-07-08-17",
    "geohash128": "1h-1j-3h-2j-34-17"
  },
  {
    "name": "Arboletes",
    "state": "Antioquia",
    "coordinate": {
      "latitude": 8.8505,
      "longitude": -76.4269
    },
    "geohash32": "d39dkg5t",
    "geohash64": "0s-0e-0c-09-0g-0c-17",
    "geohash128": "1h-1n-2t-0m-35-37"
  },
  {
    "name": "Argelia",
    "state": "Antioquia",
    "coordinate": {
      "latitude": 5.7313,
      "longitude": -75.1426
    },
    "geohash32": "d348d56g",
    "geohash64": "0s-0d-12-06-05-0d-1w",
    "geohash128": "1h-1k-0h-31-16-1w"
  },
  {
    "name": "Armenia",
    "state": "Antioquia",
    "coordinate": {
      "latitude": 6.1564,
      "longitude": -75.7872
    },
    "geohash32": "d34552tr",
    "geohash64": "0s-0d-11-0k-12-1m-0z",
    "geohash128": "1h-1k-0b-18-2t-2z"
  },
  {
    "name": "Barbosa",
    "state": "Antioquia",
    "coordinate": {
      "latitude": 6.4381,
      "longitude": -75.3314
    },
    "geohash32": "d34ktu12",
    "geohash64": "0s-0d-14-1d-1u-02-09",
    "geohash128": "1h-1k-15-2f-21-09"
  },
  {
    "name": "Bello",
    "state": "Antioquia",
    "coordinate": {
      "latitude": 6.3373,
      "longitude": -75.558
    },
    "geohash32": "d34k09sm",
    "geohash64": "0s-0d-14-10-09-1j-0d",
    "geohash128": "1h-1k-14-02-1s-2d"
  },
  {
    "name": "Betania",
    "state": "Antioquia",
    "coordinate": {
      "latitude": 5.746,
      "longitude": -75.9777
    },
    "geohash32": "d31bxn48",
    "geohash64": "0s-0d-0b-1f-1n-08-13",
    "geohash128": "1h-1h-2p-3e-04-13"
  },
  {
    "name": "Betulia",
    "state": "Antioquia",
    "coordinate": {
      "latitude": 6.1128,
      "longitude": -75.9838
    },
    "geohash32": "d31fyby3",
    "geohash64": "0s-0d-0c-1g-0b-1w-0e",
    "geohash128": "1h-1h-2x-3k-2y-0e"
  },
  {
    "name": "Ciudad Bolívar",
    "state": "Antioquia",
    "coordinate": {
      "latitude": 5.8539,
      "longitude": -76.0253
    },
    "geohash32": "d31cq18j",
    "geohash64": "0s-0d-0b-1v-01-0j-04",
    "geohash128": "1h-1h-2r-1h-18-24"
  },
  {
    "name": "Briceño",
    "state": "Antioquia",
    "coordinate": {
      "latitude": 7.111,
      "longitude": -75.5515
    },
    "geohash32": "d3622y90",
    "geohash64": "0s-0d-1h-11-0y-0k-01",
    "geohash128": "1h-1m-04-0r-29-01"
  },
  {
    "name": "Buriticá",
    "state": "Antioquia",
    "coordinate": {
      "latitude": 6.7187,
      "longitude": -75.9073
    },
    "geohash32": "d34n0xjg",
    "geohash64": "0s-0d-15-00-0x-12-1y",
    "geohash128": "1h-1k-18-07-1j-1y"
  },
  {
    "name": "Cáceres",
    "state": "Antioquia",
    "coordinate": {
      "latitude": 7.5808,
      "longitude": -75.3484
    },
    "geohash32": "d367jkhc",
    "geohash64": "0s-0d-1j-1s-1k-10-1f",
    "geohash128": "1h-1m-0g-0d-2h-1f"
  },
  {
    "name": "Caicedo",
    "state": "Antioquia",
    "coordinate": {
      "latitude": 6.4051,
      "longitude": -75.9825
    },
    "geohash32": "d31uqyp0",
    "geohash64": "0s-0d-0f-1c-0y-1b-02",
    "geohash128": "1h-1h-3p-1r-2p-02"
  },
  {
    "name": "Caldas",
    "state": "Antioquia",
    "coordinate": {
      "latitude": 6.0911,
      "longitude": -75.6357
    },
    "geohash32": "d344wugg",
    "geohash64": "0s-0d-11-0f-0u-0y-1w",
    "geohash128": "1h-1k-09-36-2g-1w"
  },
  {
    "name": "Campamento",
    "state": "Antioquia",
    "coordinate": {
      "latitude": 6.9792,
      "longitude": -75.2972
    },
    "geohash32": "d34rwwd2",
    "geohash64": "0s-0d-15-1y-0w-0s-09",
    "geohash128": "1h-1k-1g-37-0d-09"
  },
  {
    "name": "Cañasgordas",
    "state": "Antioquia",
    "coordinate": {
      "latitude": 6.7499,
      "longitude": -76.0254
    },
    "geohash32": "d31ymuzc",
    "geohash64": "0s-0d-0g-19-1u-1y-1f",
    "geohash128": "1h-1h-3x-0y-2z-1f"
  },
  {
    "name": "Caracolí",
    "state": "Antioquia",
    "coordinate": {
      "latitude": 6.4119,
      "longitude": -74.7606
    },
    "geohash32": "d34u6z2b",
    "geohash64": "0s-0d-16-13-0z-04-1b",
    "geohash128": "1h-1k-1n-1r-32-1b"
  },
  {
    "name": "Caramanta",
    "state": "Antioquia",
    "coordinate": {
      "latitude": 5.5478,
      "longitude": -75.6437
    },
    "geohash32": "d2fpw9vy",
    "geohash64": "0s-09-1p-0y-09-1r-1u",
    "geohash128": "1h-17-1c-32-1v-3u"
  },
  {
    "name": "Carepa",
    "state": "Antioquia",
    "coordinate": {
      "latitude": 7.7585,
      "longitude": -76.6525
    },
    "geohash32": "d33kpsrk",
    "geohash64": "0s-0d-0w-1b-1s-1g-09",
    "geohash128": "1h-1j-35-1f-0r-29"
  },
  {
    "name": "Motavita",
    "state": "Boyacá",
    "coordinate": {
      "latitude": 5.5765,
      "longitude": -73.367
    },
    "geohash32": "d2gzdrpv",
    "geohash64": "0s-09-1z-1q-0r-1c-1d",
    "geohash128": "1h-17-3y-35-3p-3d"
  },
  {
    "name": "Carolina",
    "state": "Antioquia",
    "coordinate": {
      "latitude": 6.7244,
      "longitude": -75.2817
    },
    "geohash32": "d34qqbjs",
    "geohash64": "0s-0d-15-1c-0b-13-10",
    "geohash128": "1h-1k-1e-1k-2j-30"
  },
  {
    "name": "Caucasia",
    "state": "Antioquia",
    "coordinate": {
      "latitude": 7.9865,
      "longitude": -75.1935
    },
    "geohash32": "d36t2vvu",
    "geohash64": "0s-0d-1q-0j-0v-1r-19",
    "geohash128": "1h-1m-1k-0q-3v-39"
  },
  {
    "name": "Chigorodó",
    "state": "Antioquia",
    "coordinate": {
      "latitude": 7.6664,
      "longitude": -76.6811
    },
    "geohash32": "d337x5ds",
    "geohash64": "0s-0d-0t-1y-15-0t-10",
    "geohash128": "1h-1j-2g-39-1d-30"
  },
  {
    "name": "Cisneros",
    "state": "Antioquia",
    "coordinate": {
      "latitude": 6.5383,
      "longitude": -75.0886
    },
    "geohash32": "d34t5q60",
    "geohash64": "0s-0d-16-0k-1q-0d-02",
    "geohash128": "1h-1k-1k-1e-26-02"
  },
  {
    "name": "Cocorná",
    "state": "Antioquia",
    "coordinate": {
      "latitude": 6.0573,
      "longitude": -75.1852
    },
    "geohash32": "d34d3ney",
    "geohash64": "0s-0d-13-01-1n-0v-1s",
    "geohash128": "1h-1k-0s-0x-0e-3s"
  },
  {
    "name": "Concepción",
    "state": "Antioquia",
    "coordinate": {
      "latitude": 6.3941,
      "longitude": -75.2583
    },
    "geohash32": "d34krkn8",
    "geohash64": "0s-0d-14-1c-1k-18-10",
    "geohash128": "1h-1k-15-1w-2n-10"
  },
  {
    "name": "Concordia",
    "state": "Antioquia",
    "coordinate": {
      "latitude": 6.0464,
      "longitude": -75.9071
    },
    "geohash32": "d3442swn",
    "geohash64": "0s-0d-11-01-0s-1t-0m",
    "geohash128": "1h-1k-08-0q-0w-2m"
  },
  {
    "name": "Copacabana",
    "state": "Antioquia",
    "coordinate": {
      "latitude": 6.3463,
      "longitude": -75.5089
    },
    "geohash32": "d34k1g21",
    "geohash64": "0s-0d-14-10-1g-04-05",
    "geohash128": "1h-1k-14-0c-32-05"
  },
  {
    "name": "Dabeiba",
    "state": "Antioquia",
    "coordinate": {
      "latitude": 7.0002,
      "longitude": -76.2691
    },
    "geohash32": "d31zb6qe",
    "geohash64": "0s-0d-0g-1p-06-1d-1n",
    "geohash128": "1h-1h-3y-2j-2q-1n"
  },
  {
    "name": "Don Matías",
    "state": "Antioquia",
    "coordinate": {
      "latitude": 6.4857,
      "longitude": -75.395
    },
    "geohash32": "d34kukej",
    "geohash64": "0s-0d-14-1e-0k-0v-05",
    "geohash128": "1h-1k-15-2n-2e-25"
  },
  {
    "name": "Ebéjico",
    "state": "Antioquia",
    "coordinate": {
      "latitude": 6.326,
      "longitude": -75.7683
    },
    "geohash32": "d345gze5",
    "geohash64": "0s-0d-11-0r-1z-0u-0r",
    "geohash128": "1h-1k-0b-3z-3e-0r"
  },
  {
    "name": "El Bagre",
    "state": "Antioquia",
    "coordinate": {
      "latitude": 7.6035,
      "longitude": -74.8095
    },
    "geohash32": "d36g38jm",
    "geohash64": "0s-0d-1m-1j-18-13-0g",
    "geohash128": "1h-1m-0y-0u-0j-2g"
  },
  {
    "name": "Entrerrios",
    "state": "Antioquia",
    "coordinate": {
      "latitude": 6.5654,
      "longitude": -75.5169
    },
    "geohash32": "d34m3e4q",
    "geohash64": "0s-0d-14-1j-1e-09-0s",
    "geohash128": "1h-1k-16-0v-14-2s"
  },
  {
    "name": "Envigado",
    "state": "Antioquia",
    "coordinate": {
      "latitude": 6.1759,
      "longitude": -75.5917
    },
    "geohash32": "d345pu7c",
    "geohash64": "0s-0d-11-0u-1u-0f-1d",
    "geohash128": "1h-1k-0c-1f-27-1d"
  },
  {
    "name": "Fredonia",
    "state": "Antioquia",
    "coordinate": {
      "latitude": 5.9258,
      "longitude": -75.6706
    },
    "geohash32": "d341wnf2",
    "geohash64": "0s-0d-10-0y-0n-0w-08",
    "geohash128": "1h-1k-03-35-0f-08"
  },
  {
    "name": "San Bernardo del Viento",
    "state": "Córdoba",
    "coordinate": {
      "latitude": 9.3533,
      "longitude": -75.9524
    },
    "geohash32": "d39vpwtn",
    "geohash64": "0s-0e-0f-1u-1w-1m-0m",
    "geohash128": "1h-1n-3r-1g-0t-2m"
  },
  {
    "name": "Giraldo",
    "state": "Antioquia",
    "coordinate": {
      "latitude": 6.6831,
      "longitude": -75.9892
    },
    "geohash32": "d31ynbd7",
    "geohash64": "0s-0d-0g-1b-0b-0s-0x",
    "geohash128": "1h-1h-3x-12-2d-0x"
  },
  {
    "name": "Girardota",
    "state": "Antioquia",
    "coordinate": {
      "latitude": 6.3771,
      "longitude": -75.4478
    },
    "geohash32": "d34k70ut",
    "geohash64": "0s-0d-14-13-10-1p-14",
    "geohash128": "1h-1k-14-1s-0u-34"
  },
  {
    "name": "Gómez Plata",
    "state": "Antioquia",
    "coordinate": {
      "latitude": 6.6818,
      "longitude": -75.2191
    },
    "geohash32": "d34w027h",
    "geohash64": "0s-0d-17-00-02-0g-00",
    "geohash128": "1h-1k-1s-00-27-20"
  },
  {
    "name": "Istmina",
    "state": "Chocó",
    "coordinate": {
      "latitude": 5.1605,
      "longitude": -76.684
    },
    "geohash32": "d2cmr52q",
    "geohash64": "0s-09-0w-1v-15-05-0u",
    "geohash128": "1h-15-37-1t-12-2u"
  },
  {
    "name": "Guadalupe",
    "state": "Antioquia",
    "coordinate": {
      "latitude": 6.8145,
      "longitude": -75.2406
    },
    "geohash32": "d34qzbe3",
    "geohash64": "0s-0d-15-1g-1b-0u-0f",
    "geohash128": "1h-1k-1e-3u-2e-0f"
  },
  {
    "name": "Guarne",
    "state": "Antioquia",
    "coordinate": {
      "latitude": 6.2805,
      "longitude": -75.4435
    },
    "geohash32": "d347eprd",
    "geohash64": "0s-0d-11-1q-1p-1f-1m",
    "geohash128": "1h-1k-0f-3e-1r-1m"
  },
  {
    "name": "Guatapé",
    "state": "Antioquia",
    "coordinate": {
      "latitude": 6.2343,
      "longitude": -75.1633
    },
    "geohash32": "d34e3wgv",
    "geohash64": "0s-0d-13-0j-1w-0z-1d",
    "geohash128": "1h-1k-0u-0z-0g-3d"
  },
  {
    "name": "Heliconia",
    "state": "Antioquia",
    "coordinate": {
      "latitude": 6.2083,
      "longitude": -75.7357
    },
    "geohash32": "d345kd4v",
    "geohash64": "0s-0d-11-0t-0d-09-1g",
    "geohash128": "1h-1k-0c-0m-04-3g"
  },
  {
    "name": "Hispania",
    "state": "Antioquia",
    "coordinate": {
      "latitude": 5.7993,
      "longitude": -75.9072
    },
    "geohash32": "d340bxwp",
    "geohash64": "0s-0d-10-05-0x-1t-0n",
    "geohash128": "1h-1k-00-2r-1w-2n"
  },
  {
    "name": "Ituango",
    "state": "Antioquia",
    "coordinate": {
      "latitude": 7.1712,
      "longitude": -75.764
    },
    "geohash32": "d360gcqr",
    "geohash64": "0s-0d-1h-07-1c-1e-0w",
    "geohash128": "1h-1m-00-3u-3q-2w"
  },
  {
    "name": "Belmira",
    "state": "Antioquia",
    "coordinate": {
      "latitude": 6.6051,
      "longitude": -75.6662
    },
    "geohash32": "d34jw4mt",
    "geohash64": "0s-0d-14-0y-04-17-14",
    "geohash128": "1h-1k-13-31-0m-34"
  },
  {
    "name": "Jericó",
    "state": "Antioquia",
    "coordinate": {
      "latitude": 5.7921,
      "longitude": -75.786
    },
    "geohash32": "d340gqqm",
    "geohash64": "0s-0d-10-07-1q-1e-0d",
    "geohash128": "1h-1k-00-3x-2q-2d"
  },
  {
    "name": "La Ceja",
    "state": "Antioquia",
    "coordinate": {
      "latitude": 6.0313,
      "longitude": -75.4333
    },
    "geohash32": "d34673zn",
    "geohash64": "0s-0d-11-13-13-1z-0m",
    "geohash128": "1h-1k-0d-1s-3z-2m"
  },
  {
    "name": "La Estrella",
    "state": "Antioquia",
    "coordinate": {
      "latitude": 6.1577,
      "longitude": -75.6432
    },
    "geohash32": "d345n8yr",
    "geohash64": "0s-0d-11-0u-08-1x-0w",
    "geohash128": "1h-1k-0c-12-0y-2w"
  },
  {
    "name": "La Pintada",
    "state": "Antioquia",
    "coordinate": {
      "latitude": 5.7487,
      "longitude": -75.6063
    },
    "geohash32": "d340xw90",
    "geohash64": "0s-0d-10-0f-1w-0k-03",
    "geohash128": "1h-1k-01-3g-09-03"
  },
  {
    "name": "La Unión",
    "state": "Antioquia",
    "coordinate": {
      "latitude": 5.9743,
      "longitude": -75.362
    },
    "geohash32": "d343vpe4",
    "geohash64": "0s-0d-10-1x-1p-0u-0j",
    "geohash128": "1h-1k-07-2x-1e-0j"
  },
  {
    "name": "Liborina",
    "state": "Antioquia",
    "coordinate": {
      "latitude": 6.6779,
      "longitude": -75.8122
    },
    "geohash32": "d34jfzej",
    "geohash64": "0s-0d-14-0r-0z-0v-07",
    "geohash128": "1h-1k-12-3r-3e-27"
  },
  {
    "name": "Maceo",
    "state": "Antioquia",
    "coordinate": {
      "latitude": 6.552,
      "longitude": -74.7874
    },
    "geohash32": "d34v60v2",
    "geohash64": "0s-0d-16-1m-00-1q-0b",
    "geohash128": "1h-1k-1q-1h-0v-0b"
  },
  {
    "name": "Marinilla",
    "state": "Antioquia",
    "coordinate": {
      "latitude": 6.1736,
      "longitude": -75.3362
    },
    "geohash32": "d347jevg",
    "geohash64": "0s-0d-11-1s-1e-1q-1x",
    "geohash128": "1h-1k-0g-0c-1v-1x"
  },
  {
    "name": "Montebello",
    "state": "Antioquia",
    "coordinate": {
      "latitude": 5.9449,
      "longitude": -75.5243
    },
    "geohash32": "d343c6hz",
    "geohash64": "0s-0d-10-1p-16-11-1z",
    "geohash128": "1h-1k-06-2t-2h-3z"
  },
  {
    "name": "Murindó",
    "state": "Antioquia",
    "coordinate": {
      "latitude": 6.9848,
      "longitude": -76.7544
    },
    "geohash32": "d31rtrt1",
    "geohash64": "0s-0d-0e-1w-1r-1k-06",
    "geohash128": "1h-1h-3g-2e-3t-06"
  },
  {
    "name": "Mutatá",
    "state": "Antioquia",
    "coordinate": {
      "latitude": 7.2441,
      "longitude": -76.4356
    },
    "geohash32": "d339hwtr",
    "geohash64": "0s-0d-0u-0s-0w-1m-0x",
    "geohash128": "1h-1j-2m-07-0t-2x"
  },
  {
    "name": "Nariño",
    "state": "Antioquia",
    "coordinate": {
      "latitude": 5.6089,
      "longitude": -75.1766
    },
    "geohash32": "d2fxcm44",
    "geohash64": "0s-09-1r-0p-1m-08-0h",
    "geohash128": "1h-17-1u-2w-34-0h"
  },
  {
    "name": "Necoclí",
    "state": "Antioquia",
    "coordinate": {
      "latitude": 8.4263,
      "longitude": -76.7893
    },
    "geohash32": "d33rutgw",
    "geohash64": "0s-0d-0x-1x-0t-0z-1m",
    "geohash128": "1h-1j-3g-2q-1g-3m"
  },
  {
    "name": "Nechí",
    "state": "Antioquia",
    "coordinate": {
      "latitude": 8.0942,
      "longitude": -74.7757
    },
    "geohash32": "d36y43tb",
    "geohash64": "0s-0d-1r-12-03-1k-1b",
    "geohash128": "1h-1m-1w-10-3t-1b"
  },
  {
    "name": "Olaya",
    "state": "Antioquia",
    "coordinate": {
      "latitude": 6.6299,
      "longitude": -75.803
    },
    "geohash32": "d34jencv",
    "geohash64": "0s-0d-14-0q-1n-0r-1g",
    "geohash128": "1h-1k-12-3e-0c-3g"
  },
  {
    "name": "Peñol",
    "state": "Antioquia",
    "coordinate": {
      "latitude": 6.2464,
      "longitude": -75.221
    },
    "geohash32": "d34e831e",
    "geohash64": "0s-0d-13-0n-03-02-1r",
    "geohash128": "1h-1k-0u-20-31-1r"
  },
  {
    "name": "Peque",
    "state": "Antioquia",
    "coordinate": {
      "latitude": 7.0212,
      "longitude": -75.9093
    },
    "geohash32": "d34pbwht",
    "geohash64": "0s-0d-15-0p-0w-11-14",
    "geohash128": "1h-1k-1b-2r-0h-34"
  },
  {
    "name": "Pueblorrico",
    "state": "Antioquia",
    "coordinate": {
      "latitude": 5.7918,
      "longitude": -75.841
    },
    "geohash32": "d340fnq7",
    "geohash64": "0s-0d-10-07-0n-1d-0x",
    "geohash128": "1h-1k-00-3p-0q-0x"
  },
  {
    "name": "Puerto Berrío",
    "state": "Antioquia",
    "coordinate": {
      "latitude": 6.4916,
      "longitude": -74.4033
    },
    "geohash32": "d35hfvv0",
    "geohash64": "0s-0d-1d-07-0v-1q-02",
    "geohash128": "1h-1k-30-3q-3v-02"
  },
  {
    "name": "Puerto Nare",
    "state": "Antioquia",
    "coordinate": {
      "latitude": 6.2053,
      "longitude": -74.5997
    },
    "geohash32": "d34gq3wh",
    "geohash64": "0s-0d-13-1v-03-1t-02",
    "geohash128": "1h-1k-0z-1h-3w-22"
  },
  {
    "name": "Puerto Triunfo",
    "state": "Antioquia",
    "coordinate": {
      "latitude": 5.8726,
      "longitude": -74.6403
    },
    "geohash32": "d34cmt0d",
    "geohash64": "0s-0d-12-1t-1t-00-1h",
    "geohash128": "1h-1k-0r-0y-10-1h"
  },
  {
    "name": "Remedios",
    "state": "Antioquia",
    "coordinate": {
      "latitude": 7.0308,
      "longitude": -74.5333
    },
    "geohash32": "d34zzzyt",
    "geohash64": "0s-0d-17-1z-1z-1x-14",
    "geohash128": "1h-1k-1z-3z-3y-34"
  },
  {
    "name": "Retiro",
    "state": "Antioquia",
    "coordinate": {
      "latitude": 6.0547,
      "longitude": -75.5137
    },
    "geohash32": "d3463whx",
    "geohash64": "0s-0d-11-11-1w-11-1n",
    "geohash128": "1h-1k-0d-0z-0h-3n"
  },
  {
    "name": "Rionegro",
    "state": "Antioquia",
    "coordinate": {
      "latitude": 6.1551,
      "longitude": -75.3737
    },
    "geohash32": "d347hbd8",
    "geohash64": "0s-0d-11-1s-0b-0s-10",
    "geohash128": "1h-1k-0g-02-2d-10"
  },
  {
    "name": "Sabanalarga",
    "state": "Antioquia",
    "coordinate": {
      "latitude": 6.8489,
      "longitude": -75.8171
    },
    "geohash32": "d34nfwz9",
    "geohash64": "0s-0d-15-07-0w-1y-17",
    "geohash128": "1h-1k-18-3r-0z-17"
  },
  {
    "name": "Sabaneta",
    "state": "Antioquia",
    "coordinate": {
      "latitude": 6.1515,
      "longitude": -75.6166
    },
    "geohash32": "d344zrce",
    "geohash64": "0s-0d-11-0g-1r-0q-1q",
    "geohash128": "1h-1k-09-3x-3c-1q"
  },
  {
    "name": "Salgar",
    "state": "Antioquia",
    "coordinate": {
      "latitude": 5.965,
      "longitude": -75.9654
    },
    "geohash32": "d31czmgs",
    "geohash64": "0s-0d-0b-1z-1m-0z-13",
    "geohash128": "1h-1h-2r-3w-3g-33"
  },
  {
    "name": "Ciénega",
    "state": "Boyacá",
    "coordinate": {
      "latitude": 5.4087,
      "longitude": -73.2957
    },
    "geohash32": "d2gyu0ee",
    "geohash64": "0s-09-1z-1e-00-0u-1r",
    "geohash128": "1h-17-3x-2h-0e-1r"
  },
  {
    "name": "Santacruz",
    "state": "Nariño",
    "coordinate": {
      "latitude": 1.2656,
      "longitude": -77.7356
    },
    "geohash32": "d20xpn6s",
    "geohash64": "0s-08-07-0u-1n-0e-13",
    "geohash128": "1h-10-1v-1e-06-33"
  },
  {
    "name": "San Francisco",
    "state": "Antioquia",
    "coordinate": {
      "latitude": 5.9643,
      "longitude": -75.1016
    },
    "geohash32": "d349gjb8",
    "geohash64": "0s-0d-12-0r-1j-0n-13",
    "geohash128": "1h-1k-0k-3w-1b-13"
  },
  {
    "name": "San Jerónimo",
    "state": "Antioquia",
    "coordinate": {
      "latitude": 6.4434,
      "longitude": -75.7281
    },
    "geohash32": "d34hsubr",
    "geohash64": "0s-0d-14-0d-0u-0p-0z",
    "geohash128": "1h-1k-11-26-2b-2z"
  },
  {
    "name": "Puerto Wilches",
    "state": "Santander",
    "coordinate": {
      "latitude": 7.3483,
      "longitude": -73.896
    },
    "geohash32": "d373y3ww",
    "geohash64": "0s-0d-1s-1z-03-1t-1j",
    "geohash128": "1h-1m-27-3h-3w-3j"
  },
  {
    "name": "Puerto Parra",
    "state": "Santander",
    "coordinate": {
      "latitude": 6.6515,
      "longitude": -74.0573
    },
    "geohash32": "d35mffc5",
    "geohash64": "0s-0d-1d-1r-0f-0q-0p",
    "geohash128": "1h-1k-36-3m-2c-0p"
  },
  {
    "name": "San Luis",
    "state": "Antioquia",
    "coordinate": {
      "latitude": 6.0434,
      "longitude": -74.9937
    },
    "geohash32": "d34dmkpm",
    "geohash64": "0s-0d-13-09-1k-1c-0d",
    "geohash128": "1h-1k-0t-0w-2p-2d"
  },
  {
    "name": "San Pedro",
    "state": "Antioquia",
    "coordinate": {
      "latitude": 6.4582,
      "longitude": -75.5638
    },
    "geohash32": "d34k8x8j",
    "geohash64": "0s-0d-14-14-0x-0j-05",
    "geohash128": "1h-1k-14-27-18-25"
  },
  {
    "name": "San Rafael",
    "state": "Antioquia",
    "coordinate": {
      "latitude": 6.2944,
      "longitude": -75.0259
    },
    "geohash32": "d34eu9zg",
    "geohash64": "0s-0d-13-0x-09-1y-1x",
    "geohash128": "1h-1k-0v-2k-1z-1x"
  },
  {
    "name": "San Roque",
    "state": "Antioquia",
    "coordinate": {
      "latitude": 6.4851,
      "longitude": -75.0196
    },
    "geohash32": "d34suus6",
    "geohash64": "0s-0d-16-0e-0u-1h-0u",
    "geohash128": "1h-1k-1j-2q-2s-0u"
  },
  {
    "name": "San Vicente",
    "state": "Antioquia",
    "coordinate": {
      "latitude": 6.2328,
      "longitude": -75.3361
    },
    "geohash32": "d347mwtu",
    "geohash64": "0s-0d-11-1t-1w-1m-1c",
    "geohash128": "1h-1k-0g-0z-0t-3c"
  },
  {
    "name": "Santa Bárbara",
    "state": "Antioquia",
    "coordinate": {
      "latitude": 5.8746,
      "longitude": -75.5671
    },
    "geohash32": "d3432mmw",
    "geohash64": "0s-0d-10-1j-0m-17-1k",
    "geohash128": "1h-1k-06-0n-3m-3k"
  },
  {
    "name": "Santo Domingo",
    "state": "Antioquia",
    "coordinate": {
      "latitude": 6.4728,
      "longitude": -75.1655
    },
    "geohash32": "d34scd64",
    "geohash64": "0s-0d-16-05-1d-0d-0m",
    "geohash128": "1h-1k-1h-2v-06-0m"
  },
  {
    "name": "El Santuario",
    "state": "Antioquia",
    "coordinate": {
      "latitude": 6.1383,
      "longitude": -75.2642
    },
    "geohash32": "d346zm6q",
    "geohash64": "0s-0d-11-1g-1m-0e-0s",
    "geohash128": "1h-1k-0e-3w-36-2s"
  },
  {
    "name": "Segovia",
    "state": "Antioquia",
    "coordinate": {
      "latitude": 7.0799,
      "longitude": -74.6989
    },
    "geohash32": "d36bk0vg",
    "geohash64": "0s-0d-1k-19-00-1q-1y",
    "geohash128": "1h-1m-0p-0h-0v-1y"
  },
  {
    "name": "Sopetrán",
    "state": "Antioquia",
    "coordinate": {
      "latitude": 6.5213,
      "longitude": -75.7455
    },
    "geohash32": "d34jh75v",
    "geohash64": "0s-0d-14-0s-07-0c-1d",
    "geohash128": "1h-1k-13-01-35-3d"
  },
  {
    "name": "Uribe",
    "state": "Meta",
    "coordinate": {
      "latitude": 3.0264,
      "longitude": -74.4361
    },
    "geohash32": "d2e14nvq",
    "geohash64": "0s-09-18-0k-0n-1r-0s",
    "geohash128": "1h-16-22-15-0v-2s"
  },
  {
    "name": "Támesis",
    "state": "Antioquia",
    "coordinate": {
      "latitude": 5.6646,
      "longitude": -75.7134
    },
    "geohash32": "d340jp5n",
    "geohash64": "0s-0d-10-08-1p-0c-0m",
    "geohash128": "1h-1k-01-0e-15-2m"
  },
  {
    "name": "Tarazá",
    "state": "Antioquia",
    "coordinate": {
      "latitude": 7.5836,
      "longitude": -75.4007
    },
    "geohash32": "d367hhwc",
    "geohash64": "0s-0d-1j-1s-0h-1s-1g",
    "geohash128": "1h-1m-0g-04-0w-1g"
  },
  {
    "name": "Tarso",
    "state": "Antioquia",
    "coordinate": {
      "latitude": 5.8647,
      "longitude": -75.8219
    },
    "geohash32": "d3416esh",
    "geohash64": "0s-0d-10-0m-0e-1j-02",
    "geohash128": "1h-1k-02-1m-1s-22"
  },
  {
    "name": "Titiribí",
    "state": "Antioquia",
    "coordinate": {
      "latitude": 6.0628,
      "longitude": -75.7937
    },
    "geohash32": "d3447r8w",
    "geohash64": "0s-0d-11-03-1r-0j-1k",
    "geohash128": "1h-1k-08-1x-38-3k"
  },
  {
    "name": "Toledo",
    "state": "Antioquia",
    "coordinate": {
      "latitude": 7.0131,
      "longitude": -75.6953
    },
    "geohash32": "d34pvs8q",
    "geohash64": "0s-0d-15-0x-1s-0j-0s",
    "geohash128": "1h-1k-1c-2y-08-2s"
  },
  {
    "name": "Turbo",
    "state": "Antioquia",
    "coordinate": {
      "latitude": 8.0926,
      "longitude": -76.7282
    },
    "geohash32": "d33qn10n",
    "geohash64": "0s-0d-0x-1b-01-01-0m",
    "geohash128": "1h-1j-3e-10-10-2m"
  },
  {
    "name": "Uramita",
    "state": "Antioquia",
    "coordinate": {
      "latitude": 6.8994,
      "longitude": -76.1742
    },
    "geohash32": "d31z4xgx",
    "geohash64": "0s-0d-0g-1k-0x-0z-1r",
    "geohash128": "1h-1h-3y-17-1g-3r"
  },
  {
    "name": "Urrao",
    "state": "Antioquia",
    "coordinate": {
      "latitude": 6.317,
      "longitude": -76.1342
    },
    "geohash32": "d31ggtbz",
    "geohash64": "0s-0d-0c-1r-1t-0p-1w",
    "geohash128": "1h-1h-2y-3y-1b-3w"
  },
  {
    "name": "Valdivia",
    "state": "Antioquia",
    "coordinate": {
      "latitude": 7.2889,
      "longitude": -75.3978
    },
    "geohash32": "d363kqbu",
    "geohash64": "0s-0d-1h-1t-0q-0p-1c",
    "geohash128": "1h-1m-07-0p-2b-3c"
  },
  {
    "name": "Valparaíso",
    "state": "Antioquia",
    "coordinate": {
      "latitude": 5.615,
      "longitude": -75.6242
    },
    "geohash32": "d2fpznhj",
    "geohash64": "0s-09-1p-0z-1n-11-07",
    "geohash128": "1h-17-1c-3x-0h-27"
  },
  {
    "name": "Vegachí",
    "state": "Antioquia",
    "coordinate": {
      "latitude": 6.8361,
      "longitude": -74.7532
    },
    "geohash32": "d34yfuqr",
    "geohash64": "0s-0d-17-17-0u-1e-0y",
    "geohash128": "1h-1k-1w-3q-2q-2y"
  },
  {
    "name": "Venecia",
    "state": "Antioquia",
    "coordinate": {
      "latitude": 5.9628,
      "longitude": -75.7381
    },
    "geohash32": "d341ut3p",
    "geohash64": "0s-0d-10-0x-0t-07-0r",
    "geohash128": "1h-1k-03-2q-13-2r"
  },
  {
    "name": "Yalí",
    "state": "Antioquia",
    "coordinate": {
      "latitude": 6.6746,
      "longitude": -74.8343
    },
    "geohash32": "d34vcp56",
    "geohash64": "0s-0d-16-1p-1p-0b-0s",
    "geohash128": "1h-1k-1q-2x-15-0s"
  },
  {
    "name": "Yarumal",
    "state": "Antioquia",
    "coordinate": {
      "latitude": 7.0303,
      "longitude": -75.5906
    },
    "geohash32": "d34pzzud",
    "geohash64": "0s-0d-15-0z-1z-1n-1h",
    "geohash128": "1h-1k-1c-3z-3u-1h"
  },
  {
    "name": "Yolombó",
    "state": "Antioquia",
    "coordinate": {
      "latitude": 6.5984,
      "longitude": -75.0114
    },
    "geohash32": "d34tt14q",
    "geohash64": "0s-0d-16-0w-11-09-0s",
    "geohash128": "1h-1k-1m-28-14-2s"
  },
  {
    "name": "Yondó",
    "state": "Antioquia",
    "coordinate": {
      "latitude": 6.2859,
      "longitude": -74.6188
    },
    "geohash32": "d34gy024",
    "geohash64": "0s-0d-13-1z-00-04-0k",
    "geohash128": "1h-1k-0z-3h-02-0k"
  },
  {
    "name": "Zaragoza",
    "state": "Antioquia",
    "coordinate": {
      "latitude": 7.4897,
      "longitude": -74.8692
    },
    "geohash32": "d36f873y",
    "geohash64": "0s-0d-1m-14-07-07-1v",
    "geohash128": "1h-1m-0w-21-33-3v"
  },
  {
    "name": "Barranquilla",
    "state": "Atlántico",
    "coordinate": {
      "latitude": 10.9685,
      "longitude": -74.7813
    },
    "geohash32": "d3fy6kcb",
    "geohash64": "0s-0e-1r-13-0k-0q-1b",
    "geohash128": "1h-1r-1w-1n-2c-1b"
  },
  {
    "name": "Baranoa",
    "state": "Atlántico",
    "coordinate": {
      "latitude": 10.7941,
      "longitude": -74.9164
    },
    "geohash32": "d3ftrjp8",
    "geohash64": "0s-0e-1q-0v-1j-1b-10",
    "geohash128": "1h-1r-1m-1w-1p-10"
  },
  {
    "name": "Candelaria",
    "state": "Atlántico",
    "coordinate": {
      "latitude": 10.4591,
      "longitude": -74.8797
    },
    "geohash32": "d3fg8042",
    "geohash64": "0s-0e-1m-1n-00-08-09",
    "geohash128": "1h-1r-0y-20-04-09"
  },
  {
    "name": "Galapa",
    "state": "Atlántico",
    "coordinate": {
      "latitude": 10.8969,
      "longitude": -74.886
    },
    "geohash32": "d3ftzztx",
    "geohash64": "0s-0e-1q-0z-1z-1m-1q",
    "geohash128": "1h-1r-1m-3z-3t-3q"
  },
  {
    "name": "Luruaco",
    "state": "Atlántico",
    "coordinate": {
      "latitude": 10.6171,
      "longitude": -75.1515
    },
    "geohash32": "d3fs3uu3",
    "geohash64": "0s-0e-1q-01-1u-1n-0d",
    "geohash128": "1h-1r-1h-0y-2u-0d"
  },
  {
    "name": "Malambo",
    "state": "Atlántico",
    "coordinate": {
      "latitude": 10.8595,
      "longitude": -74.7739
    },
    "geohash32": "d3fvf2zm",
    "geohash64": "0s-0e-1q-1r-02-1z-0d",
    "geohash128": "1h-1r-1q-3h-2z-2d"
  },
  {
    "name": "Manatí",
    "state": "Atlántico",
    "coordinate": {
      "latitude": 10.4459,
      "longitude": -74.9587
    },
    "geohash32": "d3feqm8e",
    "geohash64": "0s-0e-1m-0v-0m-0h-1r",
    "geohash128": "1h-1r-0v-1n-38-1r"
  },
  {
    "name": "Piojó",
    "state": "Atlántico",
    "coordinate": {
      "latitude": 10.7485,
      "longitude": -75.1078
    },
    "geohash32": "d3ft4usn",
    "geohash64": "0s-0e-1q-0k-0u-1j-0m",
    "geohash128": "1h-1r-1k-16-2s-2m"
  },
  {
    "name": "Polonuevo",
    "state": "Atlántico",
    "coordinate": {
      "latitude": 10.777,
      "longitude": -74.8534
    },
    "geohash32": "d3fv29vk",
    "geohash64": "0s-0e-1q-1j-09-1r-0c",
    "geohash128": "1h-1r-1q-0k-1v-2c"
  },
  {
    "name": "Sabanagrande",
    "state": "Atlántico",
    "coordinate": {
      "latitude": 10.7912,
      "longitude": -74.7606
    },
    "geohash32": "d3fv6u2z",
    "geohash64": "0s-0e-1q-1m-0u-05-1y",
    "geohash128": "1h-1r-1q-1q-22-3y"
  },
  {
    "name": "Sabanalarga",
    "state": "Atlántico",
    "coordinate": {
      "latitude": 10.6296,
      "longitude": -74.9206
    },
    "geohash32": "d3fsrph3",
    "geohash64": "0s-0e-1q-0c-1p-10-0g",
    "geohash128": "1h-1r-1j-1x-1h-0g"
  },
  {
    "name": "Santa Lucía",
    "state": "Atlántico",
    "coordinate": {
      "latitude": 10.3242,
      "longitude": -74.9602
    },
    "geohash32": "d3fdwprw",
    "geohash64": "0s-0e-1m-0f-0p-1g-1m",
    "geohash128": "1h-1r-0t-35-1r-3m"
  },
  {
    "name": "Santo Tomás",
    "state": "Atlántico",
    "coordinate": {
      "latitude": 10.7577,
      "longitude": -74.7545
    },
    "geohash32": "d3fv4ymk",
    "geohash64": "0s-0e-1q-1k-0y-17-0b",
    "geohash128": "1h-1r-1q-17-2m-2b"
  },
  {
    "name": "Soledad",
    "state": "Atlántico",
    "coordinate": {
      "latitude": 10.9184,
      "longitude": -74.7646
    },
    "geohash32": "d3fy4ewh",
    "geohash64": "0s-0e-1r-12-0e-1t-00",
    "geohash128": "1h-1r-1w-13-1w-20"
  },
  {
    "name": "Suan",
    "state": "Atlántico",
    "coordinate": {
      "latitude": 10.3335,
      "longitude": -74.8802
    },
    "geohash32": "d3ffb11v",
    "geohash64": "0s-0e-1m-15-01-03-1f",
    "geohash128": "1h-1r-0w-2h-11-3f"
  },
  {
    "name": "Tubará",
    "state": "Atlántico",
    "coordinate": {
      "latitude": 10.8756,
      "longitude": -74.9787
    },
    "geohash32": "d3ftvgf4",
    "geohash64": "0s-0e-1q-0x-1g-0w-0m",
    "geohash128": "1h-1r-1m-2v-3f-0m"
  },
  {
    "name": "Usiacurí",
    "state": "Atlántico",
    "coordinate": {
      "latitude": 10.75,
      "longitude": -74.9833
    },
    "geohash32": "d3ftjsyz",
    "geohash64": "0s-0e-1q-0s-1s-1x-1w",
    "geohash128": "1h-1r-1m-0f-0y-3w"
  },
  {
    "name": "Achí",
    "state": "Bolivar",
    "coordinate": {
      "latitude": 8.5682,
      "longitude": -74.5541
    },
    "geohash32": "d3dbxrz3",
    "geohash64": "0s-0e-12-1f-1r-1y-0d",
    "geohash128": "1h-1q-0p-3e-3z-0d"
  },
  {
    "name": "Arenal",
    "state": "Bolivar",
    "coordinate": {
      "latitude": 8.4593,
      "longitude": -73.9433
    },
    "geohash32": "d3e2j7un",
    "geohash64": "0s-0e-18-18-17-1p-0m",
    "geohash128": "1h-1q-25-09-3u-2m"
  },
  {
    "name": "Arjona",
    "state": "Bolivar",
    "coordinate": {
      "latitude": 10.2544,
      "longitude": -75.3439
    },
    "geohash32": "d3f6mdb0",
    "geohash64": "0s-0e-1j-19-1d-0n-02",
    "geohash128": "1h-1r-0e-0v-0b-02"
  },
  {
    "name": "Arroyohondo",
    "state": "Bolivar",
    "coordinate": {
      "latitude": 10.2522,
      "longitude": -75.0198
    },
    "geohash32": "d3fdkfk5",
    "geohash64": "0s-0e-1m-09-0f-14-0q",
    "geohash128": "1h-1r-0t-0m-2k-0q"
  },
  {
    "name": "Calamar",
    "state": "Bolivar",
    "coordinate": {
      "latitude": 10.2226,
      "longitude": -74.9969
    },
    "geohash32": "d3fdjkuy",
    "geohash64": "0s-0e-1m-08-1k-1p-1v",
    "geohash128": "1h-1r-0t-0d-2u-3v"
  },
  {
    "name": "Cantagallo",
    "state": "Bolivar",
    "coordinate": {
      "latitude": 7.376,
      "longitude": -73.9196
    },
    "geohash32": "d373vyv2",
    "geohash64": "0s-0d-1s-1x-1y-1q-0b",
    "geohash128": "1h-1m-27-2z-2v-0b"
  },
  {
    "name": "Cicuco",
    "state": "Bolivar",
    "coordinate": {
      "latitude": 9.2631,
      "longitude": -74.6569
    },
    "geohash32": "d3dutnk9",
    "geohash64": "0s-0e-16-1d-1n-14-14",
    "geohash128": "1h-1q-1p-2e-0k-14"
  },
  {
    "name": "Córdoba",
    "state": "Bolivar",
    "coordinate": {
      "latitude": 9.5861,
      "longitude": -74.8271
    },
    "geohash32": "d3dy930e",
    "geohash64": "0s-0e-17-14-13-00-1n",
    "geohash128": "1h-1q-1w-28-30-1n"
  },
  {
    "name": "Clemencia",
    "state": "Bolivar",
    "coordinate": {
      "latitude": 10.5665,
      "longitude": -75.325
    },
    "geohash32": "d3fkjgw4",
    "geohash64": "0s-0e-1n-18-1g-1s-0h",
    "geohash128": "1h-1r-15-0c-3w-0h"
  },
  {
    "name": "El Guamo",
    "state": "Bolivar",
    "coordinate": {
      "latitude": 10.0316,
      "longitude": -74.9761
    },
    "geohash32": "d3f9jfhn",
    "geohash64": "0s-0e-1k-0s-1f-11-0h",
    "geohash128": "1h-1r-0m-0c-2h-2h"
  },
  {
    "name": "Magangué",
    "state": "Bolivar",
    "coordinate": {
      "latitude": 9.242,
      "longitude": -74.7547
    },
    "geohash32": "d3dudfmq",
    "geohash64": "0s-0e-16-16-0f-17-0t",
    "geohash128": "1h-1q-1n-33-2m-2t"
  },
  {
    "name": "Mahates",
    "state": "Bolivar",
    "coordinate": {
      "latitude": 10.2329,
      "longitude": -75.1898
    },
    "geohash32": "d3fd1nb6",
    "geohash64": "0s-0e-1m-00-1n-0n-0v",
    "geohash128": "1h-1r-0s-0e-0b-0v"
  },
  {
    "name": "Margarita",
    "state": "Bolivar",
    "coordinate": {
      "latitude": 9.156,
      "longitude": -74.2662
    },
    "geohash32": "d3ehn4c1",
    "geohash64": "0s-0e-1d-0b-04-0q-05",
    "geohash128": "1h-1q-31-11-0c-05"
  },
  {
    "name": "Montecristo",
    "state": "Bolivar",
    "coordinate": {
      "latitude": 8.2971,
      "longitude": -74.4733
    },
    "geohash32": "d37p1q6n",
    "geohash64": "0s-0d-1x-0h-1q-0e-0k",
    "geohash128": "1h-1m-3b-0e-26-2k"
  },
  {
    "name": "Mompós",
    "state": "Bolivar",
    "coordinate": {
      "latitude": 9.2419,
      "longitude": -74.4267
    },
    "geohash32": "d3ehd6kj",
    "geohash64": "0s-0e-1d-06-06-15-07",
    "geohash128": "1h-1q-30-31-2k-27"
  },
  {
    "name": "Morales",
    "state": "Bolivar",
    "coordinate": {
      "latitude": 8.2752,
      "longitude": -73.8688
    },
    "geohash32": "d37rp46q",
    "geohash64": "0s-0d-1x-1u-14-0e-0v",
    "geohash128": "1h-1m-3g-19-06-2v"
  },
  {
    "name": "Norosi",
    "state": "Bolivar",
    "coordinate": {
      "latitude": 8.5269,
      "longitude": -74.0374
    },
    "geohash32": "d3e2e0r8",
    "geohash64": "0s-0e-18-16-10-1f-11",
    "geohash128": "1h-1q-24-38-0r-11"
  },
  {
    "name": "Pinillos",
    "state": "Bolivar",
    "coordinate": {
      "latitude": 8.9192,
      "longitude": -74.4677
    },
    "geohash32": "d3e49rwq",
    "geohash64": "0s-0e-19-04-1r-1t-0s",
    "geohash128": "1h-1q-28-2e-3w-2s"
  },
  {
    "name": "Regidor",
    "state": "Bolivar",
    "coordinate": {
      "latitude": 8.6657,
      "longitude": -73.8215
    },
    "geohash32": "d3e921sc",
    "geohash64": "0s-0e-1b-0j-01-1h-1d",
    "geohash128": "1h-1q-2k-0h-1s-1d"
  },
  {
    "name": "Río Viejo",
    "state": "Bolivar",
    "coordinate": {
      "latitude": 8.5874,
      "longitude": -73.839
    },
    "geohash32": "d3e2zg21",
    "geohash64": "0s-0e-18-1g-1g-04-04",
    "geohash128": "1h-1q-25-3v-32-04"
  },
  {
    "name": "San Estanislao",
    "state": "Bolivar",
    "coordinate": {
      "latitude": 10.3983,
      "longitude": -75.1511
    },
    "geohash32": "d3fe1uuw",
    "geohash64": "0s-0e-1m-0h-1u-1p-1k",
    "geohash128": "1h-1r-0u-0f-2u-3k"
  },
  {
    "name": "San Fernando",
    "state": "Bolivar",
    "coordinate": {
      "latitude": 9.0919,
      "longitude": -74.3597
    },
    "geohash32": "d3e5ezhu",
    "geohash64": "0s-0e-19-0q-1z-11-1b",
    "geohash128": "1h-1q-2b-3g-3h-3b"
  },
  {
    "name": "San Juan Nepomuceno",
    "state": "Bolivar",
    "coordinate": {
      "latitude": 9.9516,
      "longitude": -75.082
    },
    "geohash32": "d3f8e7wu",
    "geohash64": "0s-0e-1k-06-17-1t-1b",
    "geohash128": "1h-1r-0h-39-3w-3b"
  },
  {
    "name": "Santa Catalina",
    "state": "Bolivar",
    "coordinate": {
      "latitude": 10.6036,
      "longitude": -75.2882
    },
    "geohash32": "d3fkqf2f",
    "geohash64": "0s-0e-1n-1c-0f-04-1s",
    "geohash128": "1h-1r-15-1m-22-1s"
  },
  {
    "name": "Santa Rosa",
    "state": "Bolivar",
    "coordinate": {
      "latitude": 10.4447,
      "longitude": -75.3697
    },
    "geohash32": "d3f7kvmk",
    "geohash64": "0s-0e-1j-1t-0v-17-0c",
    "geohash128": "1h-1r-0g-0q-3m-2c"
  },
  {
    "name": "Simití",
    "state": "Bolivar",
    "coordinate": {
      "latitude": 7.9579,
      "longitude": -73.9436
    },
    "geohash32": "d37mm2ey",
    "geohash64": "0s-0d-1w-1t-12-0v-1u",
    "geohash128": "1h-1m-37-0s-2e-3u"
  },
  {
    "name": "Soplaviento",
    "state": "Bolivar",
    "coordinate": {
      "latitude": 10.3875,
      "longitude": -75.1356
    },
    "geohash32": "d3fe44zz",
    "geohash64": "0s-0e-1m-0k-04-1z-1z",
    "geohash128": "1h-1r-0u-11-0z-3z"
  },
  {
    "name": "Talaigua Nuevo",
    "state": "Bolivar",
    "coordinate": {
      "latitude": 9.3035,
      "longitude": -74.5648
    },
    "geohash32": "d3duzjxs",
    "geohash64": "0s-0e-16-1g-1j-1v-11",
    "geohash128": "1h-1q-1p-3w-1x-31"
  },
  {
    "name": "Tiquisio",
    "state": "Bolivar",
    "coordinate": {
      "latitude": 8.5597,
      "longitude": -74.2669
    },
    "geohash32": "d3e0wn0r",
    "geohash64": "0s-0e-18-0f-0n-01-0z",
    "geohash128": "1h-1q-21-35-00-2z"
  },
  {
    "name": "Turbaco",
    "state": "Bolivar",
    "coordinate": {
      "latitude": 10.3294,
      "longitude": -75.4114
    },
    "geohash32": "d3f6gbrj",
    "geohash64": "0s-0e-1j-17-1b-1g-04",
    "geohash128": "1h-1r-0d-3u-2r-24"
  },
  {
    "name": "Turbaná",
    "state": "Bolivar",
    "coordinate": {
      "latitude": 10.2717,
      "longitude": -75.4422
    },
    "geohash32": "d3f67mbs",
    "geohash64": "0s-0e-1j-13-1m-0p-13",
    "geohash128": "1h-1r-0d-1w-3b-33"
  },
  {
    "name": "Villanueva",
    "state": "Bolivar",
    "coordinate": {
      "latitude": 10.4436,
      "longitude": -75.2731
    },
    "geohash32": "d3f7rj5y",
    "geohash64": "0s-0e-1j-1v-1j-0c-1s",
    "geohash128": "1h-1r-0g-1w-15-3s"
  },
  {
    "name": "Tunja",
    "state": "Boyacá",
    "coordinate": {
      "latitude": 5.5353,
      "longitude": -73.3678
    },
    "geohash32": "d2gz6rxj",
    "geohash64": "0s-09-1z-1m-0r-1v-06",
    "geohash128": "1h-17-3y-1p-3x-26"
  },
  {
    "name": "Almeida",
    "state": "Boyacá",
    "coordinate": {
      "latitude": 4.9708,
      "longitude": -73.3797
    },
    "geohash32": "d2gu60yt",
    "geohash64": "0s-09-1y-13-00-1x-14",
    "geohash128": "1h-17-3n-1h-0y-34"
  },
  {
    "name": "Aquitania",
    "state": "Boyacá",
    "coordinate": {
      "latitude": 5.5197,
      "longitude": -72.8875
    },
    "geohash32": "d2upmkuf",
    "geohash64": "0s-0c-0p-0t-1k-1n-1v",
    "geohash128": "1h-1e-1c-0w-2u-1v"
  },
  {
    "name": "Arcabuco",
    "state": "Boyacá",
    "coordinate": {
      "latitude": 5.7546,
      "longitude": -73.4367
    },
    "geohash32": "d35b8zt4",
    "geohash64": "0s-0d-1b-14-0z-1k-0j",
    "geohash128": "1h-1k-2n-27-3t-0j"
  },
  {
    "name": "Berbeo",
    "state": "Boyacá",
    "coordinate": {
      "latitude": 5.2268,
      "longitude": -73.1261
    },
    "geohash32": "d2gvxzx0",
    "geohash64": "0s-09-1y-1y-1z-1u-02",
    "geohash128": "1h-17-3r-3g-3x-02"
  },
  {
    "name": "Betéitiva",
    "state": "Boyacá",
    "coordinate": {
      "latitude": 5.911,
      "longitude": -72.8093
    },
    "geohash32": "d3h1xhjf",
    "geohash64": "0s-0f-00-0y-1h-12-1u",
    "geohash128": "1h-1s-03-3d-0j-1u"
  },
  {
    "name": "Boavita",
    "state": "Boyacá",
    "coordinate": {
      "latitude": 6.3303,
      "longitude": -72.585
    },
    "geohash32": "d3hkh23h",
    "geohash64": "0s-0f-04-18-02-07-03",
    "geohash128": "1h-1s-15-00-23-23"
  },
  {
    "name": "Boyacá",
    "state": "Boyacá",
    "coordinate": {
      "latitude": 5.4537,
      "longitude": -73.3625
    },
    "geohash32": "d2gz48g4",
    "geohash64": "0s-09-1z-1k-08-0y-0h",
    "geohash128": "1h-17-3y-12-0g-0h"
  },
  {
    "name": "Briceño",
    "state": "Boyacá",
    "coordinate": {
      "latitude": 5.6882,
      "longitude": -73.9178
    },
    "geohash32": "d352mgw8",
    "geohash64": "0s-0d-18-19-1g-1s-12",
    "geohash128": "1h-1k-25-0v-3w-12"
  },
  {
    "name": "Busbanzá",
    "state": "Boyacá",
    "coordinate": {
      "latitude": 5.8305,
      "longitude": -72.8842
    },
    "geohash32": "d3h1jmrm",
    "geohash64": "0s-0f-00-0s-1m-1g-0d",
    "geohash128": "1h-1s-03-0d-3r-2d"
  },
  {
    "name": "Caldas",
    "state": "Boyacá",
    "coordinate": {
      "latitude": 5.5546,
      "longitude": -73.8657
    },
    "geohash32": "d2grx5ht",
    "geohash64": "0s-09-1x-1y-15-11-17",
    "geohash128": "1h-17-3g-39-1h-37"
  },
  {
    "name": "Campohermoso",
    "state": "Boyacá",
    "coordinate": {
      "latitude": 5.0313,
      "longitude": -73.1033
    },
    "geohash32": "d2uh87zv",
    "geohash64": "0s-0c-0n-04-07-1z-1d",
    "geohash128": "1h-1e-10-21-3z-3d"
  },
  {
    "name": "Cerinza",
    "state": "Boyacá",
    "coordinate": {
      "latitude": 5.9557,
      "longitude": -72.9478
    },
    "geohash32": "d3h1uh1n",
    "geohash64": "0s-0f-00-0x-0h-03-0h",
    "geohash128": "1h-1s-03-2n-01-2h"
  },
  {
    "name": "Chinavita",
    "state": "Boyacá",
    "coordinate": {
      "latitude": 5.1672,
      "longitude": -73.3682
    },
    "geohash32": "d2gv6kwv",
    "geohash64": "0s-09-1y-1m-0k-1t-1f",
    "geohash128": "1h-17-3q-1n-2w-3f"
  },
  {
    "name": "Chiquinquirá",
    "state": "Boyacá",
    "coordinate": {
      "latitude": 5.6164,
      "longitude": -73.8175
    },
    "geohash32": "d2gxbnrt",
    "geohash64": "0s-09-1z-0p-0n-1g-17",
    "geohash128": "1h-17-3u-2p-0r-37"
  },
  {
    "name": "Chiscas",
    "state": "Boyacá",
    "coordinate": {
      "latitude": 6.5564,
      "longitude": -72.5038
    },
    "geohash32": "d3hmq1s3",
    "geohash64": "0s-0f-04-1v-01-1h-0e",
    "geohash128": "1h-1s-17-1h-1s-0e"
  },
  {
    "name": "Chita",
    "state": "Boyacá",
    "coordinate": {
      "latitude": 6.1905,
      "longitude": -72.4759
    },
    "geohash32": "d3h7nybw",
    "geohash64": "0s-0f-01-1u-0y-0p-1k",
    "geohash128": "1h-1s-0g-17-2b-3k"
  },
  {
    "name": "Chitaraque",
    "state": "Boyacá",
    "coordinate": {
      "latitude": 5.9828,
      "longitude": -73.4254
    },
    "geohash32": "d35f11jk",
    "geohash64": "0s-0d-1c-10-11-13-08",
    "geohash128": "1h-1k-2w-08-1j-28"
  },
  {
    "name": "Chivatá",
    "state": "Boyacá",
    "coordinate": {
      "latitude": 5.5582,
      "longitude": -73.282
    },
    "geohash32": "d2gzs7vd",
    "geohash64": "0s-09-1z-1w-07-1q-1m",
    "geohash128": "1h-17-3z-21-3v-1m"
  },
  {
    "name": "Cómbita",
    "state": "Boyacá",
    "coordinate": {
      "latitude": 5.6333,
      "longitude": -73.3167
    },
    "geohash32": "d35b59s2",
    "geohash64": "0s-0d-1b-12-19-1h-0b",
    "geohash128": "1h-1k-2n-1b-1s-0b"
  },
  {
    "name": "Coper",
    "state": "Boyacá",
    "coordinate": {
      "latitude": 5.4768,
      "longitude": -74.0442
    },
    "geohash32": "d2gr5j48",
    "geohash64": "0s-09-1x-1k-1j-08-13",
    "geohash128": "1h-17-3f-1d-14-13"
  },
  {
    "name": "Corrales",
    "state": "Boyacá",
    "coordinate": {
      "latitude": 5.8297,
      "longitude": -72.8433
    },
    "geohash32": "d3h1nmm0",
    "geohash64": "0s-0f-00-0u-0m-16-02",
    "geohash128": "1h-1s-03-14-3m-02"
  },
  {
    "name": "Covarachía",
    "state": "Boyacá",
    "coordinate": {
      "latitude": 6.5056,
      "longitude": -72.7331
    },
    "geohash32": "d3hm0bm3",
    "geohash64": "0s-0f-04-1h-0b-16-0e",
    "geohash128": "1h-1s-16-02-2m-0e"
  },
  {
    "name": "Cubará",
    "state": "Boyacá",
    "coordinate": {
      "latitude": 6.9989,
      "longitude": -72.1092
    },
    "geohash32": "d3hxz45e",
    "geohash64": "0s-0f-07-0z-14-0b-1r",
    "geohash128": "1h-1s-1v-3t-05-1r"
  },
  {
    "name": "Cucaita",
    "state": "Boyacá",
    "coordinate": {
      "latitude": 5.5437,
      "longitude": -73.4543
    },
    "geohash32": "d2gz890n",
    "geohash64": "0s-09-1z-1n-09-01-0k",
    "geohash128": "1h-17-3y-22-10-2k"
  },
  {
    "name": "Cuítiva",
    "state": "Boyacá",
    "coordinate": {
      "latitude": 5.5801,
      "longitude": -72.9669
    },
    "geohash32": "d2upexg4",
    "geohash64": "0s-0c-0p-0q-1x-0y-0h",
    "geohash128": "1h-1e-1b-3g-1g-0h"
  },
  {
    "name": "Chíquiza",
    "state": "Boyacá",
    "coordinate": {
      "latitude": 5.6041,
      "longitude": -73.4852
    },
    "geohash32": "d2gxzu1w",
    "geohash64": "0s-09-1z-0z-1u-03-1k",
    "geohash128": "1h-17-3v-3y-21-3k"
  },
  {
    "name": "Chivor",
    "state": "Boyacá",
    "coordinate": {
      "latitude": 4.8856,
      "longitude": -73.3689
    },
    "geohash32": "d2ggf3qk",
    "geohash64": "0s-09-1v-1r-03-1e-0c",
    "geohash128": "1h-17-2y-3h-3q-2c"
  },
  {
    "name": "Duitama",
    "state": "Boyacá",
    "coordinate": {
      "latitude": 5.8245,
      "longitude": -73.0341
    },
    "geohash32": "d3h14h64",
    "geohash64": "0s-0f-00-0k-0h-0d-0k",
    "geohash128": "1h-1s-02-14-06-0k"
  },
  {
    "name": "El Cocuy",
    "state": "Boyacá",
    "coordinate": {
      "latitude": 6.4115,
      "longitude": -72.4488
    },
    "geohash32": "d3hkrrhm",
    "geohash64": "0s-0f-04-1c-1r-11-0g",
    "geohash128": "1h-1s-15-1x-3h-2g"
  },
  {
    "name": "El Espino",
    "state": "Boyacá",
    "coordinate": {
      "latitude": 6.4828,
      "longitude": -72.4972
    },
    "geohash32": "d3hkyk1j",
    "geohash64": "0s-0f-04-1g-0k-03-06",
    "geohash128": "1h-1s-15-3n-21-26"
  },
  {
    "name": "Firavitoba",
    "state": "Boyacá",
    "coordinate": {
      "latitude": 5.6688,
      "longitude": -72.9929
    },
    "geohash32": "d3h05pbp",
    "geohash64": "0s-0f-00-02-1p-0p-0q",
    "geohash128": "1h-1s-00-1e-1b-2q"
  },
  {
    "name": "Floresta",
    "state": "Boyacá",
    "coordinate": {
      "latitude": 5.859,
      "longitude": -72.9188
    },
    "geohash32": "d3h1kdw5",
    "geohash64": "0s-0f-00-0t-0d-1s-0q",
    "geohash128": "1h-1s-03-0m-0w-0q"
  },
  {
    "name": "Gachantivá",
    "state": "Boyacá",
    "coordinate": {
      "latitude": 5.7566,
      "longitude": -73.5395
    },
    "geohash32": "d358wxfn",
    "geohash64": "0s-0d-1b-0f-0x-0x-0m",
    "geohash128": "1h-1k-2j-37-1f-2m"
  },
  {
    "name": "Gameza",
    "state": "Boyacá",
    "coordinate": {
      "latitude": 5.8026,
      "longitude": -72.8059
    },
    "geohash32": "d3h1p226",
    "geohash64": "0s-0f-00-0u-12-04-0t",
    "geohash128": "1h-1s-03-18-22-0t"
  },
  {
    "name": "Garagoa",
    "state": "Boyacá",
    "coordinate": {
      "latitude": 5.0824,
      "longitude": -73.3633
    },
    "geohash32": "d2guft4r",
    "geohash64": "0s-09-1y-17-0t-09-0y",
    "geohash128": "1h-17-3n-3q-14-2y"
  },
  {
    "name": "Guacamayas",
    "state": "Boyacá",
    "coordinate": {
      "latitude": 6.4624,
      "longitude": -72.5047
    },
    "geohash32": "d3hky07w",
    "geohash64": "0s-0f-04-1g-00-0g-1k",
    "geohash128": "1h-1s-15-3h-07-3k"
  },
  {
    "name": "Guateque",
    "state": "Boyacá",
    "coordinate": {
      "latitude": 5.0062,
      "longitude": -73.4727
    },
    "geohash32": "d2gu2p6g",
    "geohash64": "0s-09-1y-11-0p-0d-1w",
    "geohash128": "1h-17-3n-0p-16-1w"
  },
  {
    "name": "Guayatá",
    "state": "Boyacá",
    "coordinate": {
      "latitude": 4.9642,
      "longitude": -73.4875
    },
    "geohash32": "d2gspz8n",
    "geohash64": "0s-09-1y-0b-1z-0j-0j",
    "geohash128": "1h-17-3j-1g-38-2j"
  },
  {
    "name": "Güicán",
    "state": "Boyacá",
    "coordinate": {
      "latitude": 6.4655,
      "longitude": -72.4154
    },
    "geohash32": "d3hsb1h8",
    "geohash64": "0s-0f-06-05-01-10-12",
    "geohash128": "1h-1s-1h-2h-1h-12"
  },
  {
    "name": "Chíquiza",
    "state": "Boyacá",
    "coordinate": {
      "latitude": 5.6041,
      "longitude": -73.4852
    },
    "geohash32": "d2gxzu1w",
    "geohash64": "0s-09-1z-0z-1u-03-1k",
    "geohash128": "1h-17-3v-3y-21-3k"
  },
  {
    "name": "Jenesano",
    "state": "Boyacá",
    "coordinate": {
      "latitude": 5.3854,
      "longitude": -73.3636
    },
    "geohash32": "d2gyds6k",
    "geohash64": "0s-09-1z-16-0s-0e-08",
    "geohash128": "1h-17-3w-36-06-28"
  },
  {
    "name": "Jericó",
    "state": "Boyacá",
    "coordinate": {
      "latitude": 6.1459,
      "longitude": -72.5708
    },
    "geohash32": "d3h6uwgd",
    "geohash64": "0s-0f-01-1e-0w-0y-1h",
    "geohash128": "1h-1s-0e-2r-0g-1h"
  },
  {
    "name": "Labranzagrande",
    "state": "Boyacá",
    "coordinate": {
      "latitude": 5.5622,
      "longitude": -72.575
    },
    "geohash32": "d2urss86",
    "geohash64": "0s-0c-0p-1w-0s-0h-0u",
    "geohash128": "1h-1e-1g-26-08-0u"
  },
  {
    "name": "La Capilla",
    "state": "Boyacá",
    "coordinate": {
      "latitude": 5.1138,
      "longitude": -73.4587
    },
    "geohash32": "d2gv06vn",
    "geohash64": "0s-09-1y-1h-06-1r-0h",
    "geohash128": "1h-17-3q-01-2v-2h"
  },
  {
    "name": "La Victoria",
    "state": "Boyacá",
    "coordinate": {
      "latitude": 5.5228,
      "longitude": -74.2328
    },
    "geohash32": "d2gpqv3k",
    "geohash64": "0s-09-1x-0v-0v-07-09",
    "geohash128": "1h-17-3c-1q-33-29"
  },
  {
    "name": "Macanal",
    "state": "Boyacá",
    "coordinate": {
      "latitude": 4.9721,
      "longitude": -73.3196
    },
    "geohash32": "d2gu794k",
    "geohash64": "0s-09-1y-13-19-09-09",
    "geohash128": "1h-17-3n-1u-14-29"
  },
  {
    "name": "Maripí",
    "state": "Boyacá",
    "coordinate": {
      "latitude": 5.5519,
      "longitude": -74.0086
    },
    "geohash32": "d2grefsw",
    "geohash64": "0s-09-1x-1q-1f-1j-1h",
    "geohash128": "1h-17-3f-3c-2s-3h"
  },
  {
    "name": "Miraflores",
    "state": "Boyacá",
    "coordinate": {
      "latitude": 5.1961,
      "longitude": -73.145
    },
    "geohash32": "d2gvx9cm",
    "geohash64": "0s-09-1y-1y-19-0r-0f",
    "geohash128": "1h-17-3r-3b-1c-2f"
  },
  {
    "name": "Mongua",
    "state": "Boyacá",
    "coordinate": {
      "latitude": 5.7508,
      "longitude": -72.8034
    },
    "geohash32": "d3h0xqfh",
    "geohash64": "0s-0f-00-0f-1q-0x-03",
    "geohash128": "1h-1s-01-3e-2f-23"
  },
  {
    "name": "Monguí",
    "state": "Boyacá",
    "coordinate": {
      "latitude": 5.7215,
      "longitude": -72.8491
    },
    "geohash32": "d3h0w38f",
    "geohash64": "0s-0f-00-0f-03-0h-1u",
    "geohash128": "1h-1s-01-30-38-1u"
  },
  {
    "name": "Moniquirá",
    "state": "Boyacá",
    "coordinate": {
      "latitude": 5.8764,
      "longitude": -73.5728
    },
    "geohash32": "d359mvcb",
    "geohash64": "0s-0d-1b-0t-1v-0q-1c",
    "geohash128": "1h-1k-2m-0y-3c-1c"
  },
  {
    "name": "Muzo",
    "state": "Boyacá",
    "coordinate": {
      "latitude": 5.5353,
      "longitude": -74.1078
    },
    "geohash32": "d2gr3xsm",
    "geohash64": "0s-09-1x-1j-1x-1j-0d",
    "geohash128": "1h-17-3f-0z-1s-2d"
  },
  {
    "name": "Nobsa",
    "state": "Boyacá",
    "coordinate": {
      "latitude": 5.7698,
      "longitude": -72.941
    },
    "geohash32": "d3h0u4mg",
    "geohash64": "0s-0f-00-0e-04-16-1z",
    "geohash128": "1h-1s-01-2j-0m-1z"
  },
  {
    "name": "Nuevo Colón",
    "state": "Boyacá",
    "coordinate": {
      "latitude": 5.3537,
      "longitude": -73.4566
    },
    "geohash32": "d2gy2qwe",
    "geohash64": "0s-09-1z-11-0q-1s-1p",
    "geohash128": "1h-17-3w-0p-2w-1p"
  },
  {
    "name": "Oicatá",
    "state": "Boyacá",
    "coordinate": {
      "latitude": 5.5955,
      "longitude": -73.3082
    },
    "geohash32": "d2gzgfds",
    "geohash64": "0s-09-1z-1r-1f-0t-10",
    "geohash128": "1h-17-3y-3v-2d-30"
  },
  {
    "name": "Otanche",
    "state": "Boyacá",
    "coordinate": {
      "latitude": 5.6567,
      "longitude": -74.1825
    },
    "geohash32": "d350pvvb",
    "geohash64": "0s-0d-18-0b-1v-1q-1c",
    "geohash128": "1h-1k-21-1f-3v-1c"
  },
  {
    "name": "Pachavita",
    "state": "Boyacá",
    "coordinate": {
      "latitude": 5.1486,
      "longitude": -73.3994
    },
    "geohash32": "d2gv3c20",
    "geohash64": "0s-09-1y-1j-1c-04-03",
    "geohash128": "1h-17-3q-0u-32-03"
  },
  {
    "name": "Páez",
    "state": "Boyacá",
    "coordinate": {
      "latitude": 5.1011,
      "longitude": -73.0512
    },
    "geohash32": "d2uj18ts",
    "geohash64": "0s-0c-0n-0h-18-1m-12",
    "geohash128": "1h-1e-12-0b-0t-32"
  },
  {
    "name": "Paipa",
    "state": "Boyacá",
    "coordinate": {
      "latitude": 5.7801,
      "longitude": -73.1171
    },
    "geohash32": "d3h0bhjz",
    "geohash64": "0s-0f-00-05-0h-13-1x",
    "geohash128": "1h-1s-00-2n-0j-3x"
  },
  {
    "name": "Pajarito",
    "state": "Boyacá",
    "coordinate": {
      "latitude": 5.3842,
      "longitude": -72.697
    },
    "geohash32": "d2uq9spt",
    "geohash64": "0s-0c-0p-14-1s-1c-16",
    "geohash128": "1h-1e-1d-2f-0p-36"
  },
  {
    "name": "Panqueba",
    "state": "Boyacá",
    "coordinate": {
      "latitude": 6.4453,
      "longitude": -72.4627
    },
    "geohash32": "d3hkxj66",
    "geohash64": "0s-0f-04-1f-1j-0d-0t",
    "geohash128": "1h-1s-15-3d-16-0t"
  },
  {
    "name": "Pauna",
    "state": "Boyacá",
    "coordinate": {
      "latitude": 5.6586,
      "longitude": -73.9825
    },
    "geohash32": "d352hqpe",
    "geohash64": "0s-0d-18-18-0q-1b-1p",
    "geohash128": "1h-1k-25-05-2p-1p"
  },
  {
    "name": "Paya",
    "state": "Boyacá",
    "coordinate": {
      "latitude": 5.6249,
      "longitude": -72.4235
    },
    "geohash32": "d2urzzyz",
    "geohash64": "0s-0c-0p-1z-1z-1x-1w",
    "geohash128": "1h-1e-1g-3z-3y-3w"
  },
  {
    "name": "Pesca",
    "state": "Boyacá",
    "coordinate": {
      "latitude": 5.55,
      "longitude": -73.05
    },
    "geohash32": "d2up9dqe",
    "geohash64": "0s-0c-0p-0n-1d-1d-1n",
    "geohash128": "1h-1e-1b-2c-0q-1n"
  },
  {
    "name": "Pisba",
    "state": "Boyacá",
    "coordinate": {
      "latitude": 5.724,
      "longitude": -72.4865
    },
    "geohash32": "d3h2wd0b",
    "geohash64": "0s-0f-00-1f-0d-00-1c",
    "geohash128": "1h-1s-05-33-00-1c"
  },
  {
    "name": "Puerto Boyacá",
    "state": "Boyacá",
    "coordinate": {
      "latitude": 5.9758,
      "longitude": -74.5885
    },
    "geohash32": "d34cyxy7",
    "geohash64": "0s-0d-12-1z-0x-1w-0x",
    "geohash128": "1h-1k-0r-3r-1y-0x"
  },
  {
    "name": "Quípama",
    "state": "Boyacá",
    "coordinate": {
      "latitude": 5.5194,
      "longitude": -74.1777
    },
    "geohash32": "d2gr2hc2",
    "geohash64": "0s-09-1x-1j-0h-0q-0c",
    "geohash128": "1h-17-3f-0n-0c-0c"
  },
  {
    "name": "Ramiriquí",
    "state": "Boyacá",
    "coordinate": {
      "latitude": 5.4002,
      "longitude": -73.3354
    },
    "geohash32": "d2gyepnf",
    "geohash64": "0s-09-1z-16-1p-18-1s",
    "geohash128": "1h-17-3w-3e-1n-1s"
  },
  {
    "name": "Ráquira",
    "state": "Boyacá",
    "coordinate": {
      "latitude": 5.5379,
      "longitude": -73.632
    },
    "geohash32": "d2gxs2nu",
    "geohash64": "0s-09-1z-0w-02-19-19",
    "geohash128": "1h-17-3v-20-2n-39"
  },
  {
    "name": "Rondón",
    "state": "Boyacá",
    "coordinate": {
      "latitude": 5.3564,
      "longitude": -73.2092
    },
    "geohash32": "d2gyqp4e",
    "geohash64": "0s-09-1z-1c-0p-08-1q",
    "geohash128": "1h-17-3x-1p-14-1q"
  },
  {
    "name": "Saboyá",
    "state": "Boyacá",
    "coordinate": {
      "latitude": 5.6964,
      "longitude": -73.7693
    },
    "geohash32": "d3583kfz",
    "geohash64": "0s-0d-1b-01-1k-0x-1x",
    "geohash128": "1h-1k-2h-0w-2f-3x"
  },
  {
    "name": "Sáchica",
    "state": "Boyacá",
    "coordinate": {
      "latitude": 5.5845,
      "longitude": -73.5418
    },
    "geohash32": "d2gxy88k",
    "geohash64": "0s-09-1z-0z-08-0j-0b",
    "geohash128": "1h-17-3v-3k-08-2b"
  },
  {
    "name": "Samacá",
    "state": "Boyacá",
    "coordinate": {
      "latitude": 5.4927,
      "longitude": -73.4854
    },
    "geohash32": "d2gxpzct",
    "geohash64": "0s-09-1z-0u-1z-0r-14",
    "geohash128": "1h-17-3v-1g-3c-34"
  },
  {
    "name": "San Eduardo",
    "state": "Boyacá",
    "coordinate": {
      "latitude": 5.2,
      "longitude": -73.05
    },
    "geohash32": "d2uj9dws",
    "geohash64": "0s-0c-0n-0n-1d-1t-10",
    "geohash128": "1h-1e-12-2c-0w-30"
  },
  {
    "name": "San Mateo",
    "state": "Boyacá",
    "coordinate": {
      "latitude": 6.402,
      "longitude": -72.5531
    },
    "geohash32": "d3hkmj2q",
    "geohash64": "0s-0f-04-19-1j-05-0u",
    "geohash128": "1h-1s-15-0w-12-2u"
  },
  {
    "name": "Santana",
    "state": "Boyacá",
    "coordinate": {
      "latitude": 6.0575,
      "longitude": -73.4811
    },
    "geohash32": "d35drysx",
    "geohash64": "0s-0d-1c-0c-1y-1j-1q",
    "geohash128": "1h-1k-2t-1z-2s-3q"
  },
  {
    "name": "Santa María",
    "state": "Boyacá",
    "coordinate": {
      "latitude": 4.8605,
      "longitude": -73.2623
    },
    "geohash32": "d2ggsuu4",
    "geohash64": "0s-09-1v-1w-0u-1n-0h",
    "geohash128": "1h-17-2z-26-2u-0h"
  },
  {
    "name": "Santa Sofía",
    "state": "Boyacá",
    "coordinate": {
      "latitude": 5.7091,
      "longitude": -73.604
    },
    "geohash32": "d358mp71",
    "geohash64": "0s-0d-1b-09-1p-0f-07",
    "geohash128": "1h-1k-2j-0x-17-07"
  },
  {
    "name": "Sativanorte",
    "state": "Boyacá",
    "coordinate": {
      "latitude": 6.1316,
      "longitude": -72.7089
    },
    "geohash32": "d3h6cknz",
    "geohash64": "0s-0f-01-15-1k-19-1y",
    "geohash128": "1h-1s-0d-2w-2n-3y"
  },
  {
    "name": "Sativasur",
    "state": "Boyacá",
    "coordinate": {
      "latitude": 6.0896,
      "longitude": -72.7243
    },
    "geohash32": "d3h69hef",
    "geohash64": "0s-0f-01-14-1h-0u-1s",
    "geohash128": "1h-1s-0d-2d-0e-1s"
  },
  {
    "name": "Siachoque",
    "state": "Boyacá",
    "coordinate": {
      "latitude": 5.5124,
      "longitude": -73.2444
    },
    "geohash32": "d2gzm790",
    "geohash64": "0s-09-1z-1t-17-0k-00",
    "geohash128": "1h-17-3z-0t-39-00"
  },
  {
    "name": "Soatá",
    "state": "Boyacá",
    "coordinate": {
      "latitude": 6.3337,
      "longitude": -72.6828
    },
    "geohash32": "d3hk4140",
    "geohash64": "0s-0f-04-12-01-08-00",
    "geohash128": "1h-1s-14-10-14-00"
  },
  {
    "name": "Socotá",
    "state": "Boyacá",
    "coordinate": {
      "latitude": 6.0403,
      "longitude": -72.6351
    },
    "geohash32": "d3h675se",
    "geohash64": "0s-0f-01-13-15-1h-1q",
    "geohash128": "1h-1s-0d-1t-1s-1q"
  },
  {
    "name": "Socha",
    "state": "Boyacá",
    "coordinate": {
      "latitude": 5.9817,
      "longitude": -72.715
    },
    "geohash32": "d3h612ft",
    "geohash64": "0s-0f-01-10-12-0x-15",
    "geohash128": "1h-1s-0d-08-2f-35"
  },
  {
    "name": "Sogamoso",
    "state": "Boyacá",
    "coordinate": {
      "latitude": 5.7143,
      "longitude": -72.9339
    },
    "geohash32": "d3h0s270",
    "geohash64": "0s-0f-00-0d-02-0f-02",
    "geohash128": "1h-1s-01-20-27-02"
  },
  {
    "name": "Somondoco",
    "state": "Boyacá",
    "coordinate": {
      "latitude": 4.9854,
      "longitude": -73.4327
    },
    "geohash32": "d2gu2gxf",
    "geohash64": "0s-09-1y-11-0g-1u-1u",
    "geohash128": "1h-17-3n-0m-3x-1u"
  },
  {
    "name": "Sora",
    "state": "Boyacá",
    "coordinate": {
      "latitude": 5.5651,
      "longitude": -73.4502
    },
    "geohash32": "d2gz8t55",
    "geohash64": "0s-09-1z-1n-0t-0b-0q",
    "geohash128": "1h-17-3y-26-15-0q"
  },
  {
    "name": "Sotaquirá",
    "state": "Boyacá",
    "coordinate": {
      "latitude": 5.7648,
      "longitude": -73.2476
    },
    "geohash32": "d35bv1qw",
    "geohash64": "0s-0d-1b-1e-11-1e-1k",
    "geohash128": "1h-1k-2p-2s-1q-3k"
  },
  {
    "name": "Soracá",
    "state": "Boyacá",
    "coordinate": {
      "latitude": 5.5005,
      "longitude": -73.333
    },
    "geohash32": "d2gz732d",
    "geohash64": "0s-09-1z-1m-13-04-1j",
    "geohash128": "1h-17-3y-1s-32-1j"
  },
  {
    "name": "Susacón",
    "state": "Boyacá",
    "coordinate": {
      "latitude": 6.2298,
      "longitude": -72.6901
    },
    "geohash32": "d3h73yhe",
    "geohash64": "0s-0f-01-1j-1y-10-1q",
    "geohash128": "1h-1s-0f-0z-2h-1q"
  },
  {
    "name": "Sutamarchán",
    "state": "Boyacá",
    "coordinate": {
      "latitude": 5.6154,
      "longitude": -73.617
    },
    "geohash32": "d2gxuy38",
    "geohash64": "0s-09-1z-0x-0y-06-12",
    "geohash128": "1h-17-3v-2r-23-12"
  },
  {
    "name": "Sutatenza",
    "state": "Boyacá",
    "coordinate": {
      "latitude": 5.0264,
      "longitude": -73.4337
    },
    "geohash32": "d2gu8gp0",
    "geohash64": "0s-09-1y-14-0g-1b-03",
    "geohash128": "1h-17-3n-23-3p-03"
  },
  {
    "name": "Tasco",
    "state": "Boyacá",
    "coordinate": {
      "latitude": 5.9104,
      "longitude": -72.78
    },
    "geohash32": "d3h1xggn",
    "geohash64": "0s-0f-00-0y-1g-0z-0m",
    "geohash128": "1h-1s-03-3c-3g-2m"
  },
  {
    "name": "Sutatenza",
    "state": "Boyacá",
    "coordinate": {
      "latitude": 5.0264,
      "longitude": -73.4337
    },
    "geohash32": "d2gu8gp0",
    "geohash64": "0s-09-1y-14-0g-1b-03",
    "geohash128": "1h-17-3n-23-3p-03"
  },
  {
    "name": "Tibaná",
    "state": "Boyacá",
    "coordinate": {
      "latitude": 5.3173,
      "longitude": -73.3965
    },
    "geohash32": "d2gy1zfr",
    "geohash64": "0s-09-1z-10-1z-0x-0x",
    "geohash128": "1h-17-3w-0g-3f-2x"
  },
  {
    "name": "Tinjacá",
    "state": "Boyacá",
    "coordinate": {
      "latitude": 5.5792,
      "longitude": -73.6449
    },
    "geohash32": "d2gxsptm",
    "geohash64": "0s-09-1z-0w-0p-1m-0f",
    "geohash128": "1h-17-3v-25-1t-2f"
  },
  {
    "name": "Tipacoque",
    "state": "Boyacá",
    "coordinate": {
      "latitude": 6.4203,
      "longitude": -72.6918
    },
    "geohash32": "d3hk9bg2",
    "geohash64": "0s-0f-04-14-1b-0y-0c",
    "geohash128": "1h-1s-14-2b-2g-0c"
  },
  {
    "name": "Toca",
    "state": "Boyacá",
    "coordinate": {
      "latitude": 5.5639,
      "longitude": -73.184
    },
    "geohash32": "d2gzwsvh",
    "geohash64": "0s-09-1z-1y-0s-1r-00",
    "geohash128": "1h-17-3z-36-0v-20"
  },
  {
    "name": "Tópaga",
    "state": "Boyacá",
    "coordinate": {
      "latitude": 5.7598,
      "longitude": -72.8258
    },
    "geohash32": "d3h0yb9c",
    "geohash64": "0s-0f-00-0g-0b-0k-1d",
    "geohash128": "1h-1s-01-3k-29-1d"
  },
  {
    "name": "Tota",
    "state": "Boyacá",
    "coordinate": {
      "latitude": 5.5583,
      "longitude": -72.9876
    },
    "geohash32": "d2upe5u5",
    "geohash64": "0s-0c-0p-0q-15-1n-0n",
    "geohash128": "1h-1e-1b-39-1u-0n"
  },
  {
    "name": "Turmequé",
    "state": "Boyacá",
    "coordinate": {
      "latitude": 5.3236,
      "longitude": -73.4907
    },
    "geohash32": "d2gwr9js",
    "geohash64": "0s-09-1z-0c-19-13-12",
    "geohash128": "1h-17-3t-1u-1j-32"
  },
  {
    "name": "Tutazá",
    "state": "Boyacá",
    "coordinate": {
      "latitude": 6.0323,
      "longitude": -72.8564
    },
    "geohash32": "d3h4q45s",
    "geohash64": "0s-0f-01-0c-04-0c-11",
    "geohash128": "1h-1s-09-1j-05-31"
  },
  {
    "name": "Umbita",
    "state": "Boyacá",
    "coordinate": {
      "latitude": 5.2184,
      "longitude": -73.3931
    },
    "geohash32": "d2gv9vuz",
    "geohash64": "0s-09-1y-1n-1v-1p-1w",
    "geohash128": "1h-17-3q-2f-3u-3w"
  },
  {
    "name": "Ventaquemada",
    "state": "Boyacá",
    "coordinate": {
      "latitude": 5.3675,
      "longitude": -73.5207
    },
    "geohash32": "d2gwwcpg",
    "geohash64": "0s-09-1z-0f-0c-1b-1x",
    "geohash128": "1h-17-3t-32-3p-1x"
  },
  {
    "name": "Viracachá",
    "state": "Boyacá",
    "coordinate": {
      "latitude": 5.4364,
      "longitude": -73.2961
    },
    "geohash32": "d2gyujem",
    "geohash64": "0s-09-1z-1e-0j-0v-0f",
    "geohash128": "1h-17-3x-2n-1e-2f"
  },
  {
    "name": "Zetaquira",
    "state": "Boyacá",
    "coordinate": {
      "latitude": 5.2822,
      "longitude": -73.169
    },
    "geohash32": "d2gyncxg",
    "geohash64": "0s-09-1z-1b-0c-1u-1y",
    "geohash128": "1h-17-3x-12-3x-1y"
  },
  {
    "name": "Manizales",
    "state": "Caldas",
    "coordinate": {
      "latitude": 5.0689,
      "longitude": -75.5174
    },
    "geohash32": "d2fkcdcb",
    "geohash64": "0s-09-1n-15-1d-0q-1b",
    "geohash128": "1h-17-14-2v-0c-1b"
  },
  {
    "name": "Aguadas",
    "state": "Caldas",
    "coordinate": {
      "latitude": 5.6116,
      "longitude": -75.4562
    },
    "geohash32": "d2frfvw3",
    "geohash64": "0s-09-1p-1r-0v-1s-0g",
    "geohash128": "1h-17-1f-3q-3w-0g"
  },
  {
    "name": "Anserma",
    "state": "Caldas",
    "coordinate": {
      "latitude": 5.2006,
      "longitude": -75.7531
    },
    "geohash32": "d2fjs4wr",
    "geohash64": "0s-09-1n-0w-04-1t-0x",
    "geohash128": "1h-17-13-21-0w-2x"
  },
  {
    "name": "Aranzazu",
    "state": "Caldas",
    "coordinate": {
      "latitude": 5.2712,
      "longitude": -75.4904
    },
    "geohash32": "d2fmfptd",
    "geohash64": "0s-09-1n-1r-0p-1k-1j",
    "geohash128": "1h-17-16-3p-1t-1j"
  },
  {
    "name": "Belalcázar",
    "state": "Caldas",
    "coordinate": {
      "latitude": 4.9953,
      "longitude": -75.8128
    },
    "geohash32": "d2fh6v6g",
    "geohash64": "0s-09-1n-03-0v-0d-1x",
    "geohash128": "1h-17-10-1q-36-1x"
  },
  {
    "name": "Chinchiná",
    "state": "Caldas",
    "coordinate": {
      "latitude": 4.9825,
      "longitude": -75.6036
    },
    "geohash32": "d2fhre51",
    "geohash64": "0s-09-1n-0c-1e-0b-06",
    "geohash128": "1h-17-11-1v-15-06"
  },
  {
    "name": "Filadelfia",
    "state": "Caldas",
    "coordinate": {
      "latitude": 5.2961,
      "longitude": -75.5612
    },
    "geohash32": "d2fq0s4h",
    "geohash64": "0s-09-1p-10-0s-09-00",
    "geohash128": "1h-17-1d-06-04-20"
  },
  {
    "name": "La Dorada",
    "state": "Caldas",
    "coordinate": {
      "latitude": 5.4478,
      "longitude": -74.6631
    },
    "geohash32": "d2fyuzxz",
    "geohash64": "0s-09-1r-1e-0z-1v-1z",
    "geohash128": "1h-17-1x-2r-3x-3z"
  },
  {
    "name": "La Merced",
    "state": "Caldas",
    "coordinate": {
      "latitude": 5.3934,
      "longitude": -75.5581
    },
    "geohash32": "d2fq8tu6",
    "geohash64": "0s-09-1p-14-0t-1n-0t",
    "geohash128": "1h-17-1d-26-1u-0t"
  },
  {
    "name": "Manzanares",
    "state": "Caldas",
    "coordinate": {
      "latitude": 5.2327,
      "longitude": -75.1504
    },
    "geohash32": "d2ftcbt4",
    "geohash64": "0s-09-1q-0p-1b-1k-0m",
    "geohash128": "1h-17-1k-2u-2t-0m"
  },
  {
    "name": "Marmato",
    "state": "Caldas",
    "coordinate": {
      "latitude": 5.4784,
      "longitude": -75.5927
    },
    "geohash32": "d2fppv71",
    "geohash64": "0s-09-1p-0u-1v-0f-05",
    "geohash128": "1h-17-1c-1f-37-05"
  },
  {
    "name": "Marulanda",
    "state": "Caldas",
    "coordinate": {
      "latitude": 5.2839,
      "longitude": -75.2602
    },
    "geohash32": "d2fqp3vh",
    "geohash64": "0s-09-1p-1b-13-1r-03",
    "geohash128": "1h-17-1e-18-3v-23"
  },
  {
    "name": "Neira",
    "state": "Caldas",
    "coordinate": {
      "latitude": 5.1665,
      "longitude": -75.52
    },
    "geohash32": "d2fm3s81",
    "geohash64": "0s-09-1n-1j-1s-0h-04",
    "geohash128": "1h-17-16-0y-08-04"
  },
  {
    "name": "Norcasia",
    "state": "Caldas",
    "coordinate": {
      "latitude": 5.5778,
      "longitude": -74.8852
    },
    "geohash32": "d2fxxzqm",
    "geohash64": "0s-09-1r-0y-1z-1e-0d",
    "geohash128": "1h-17-1v-3g-3q-2d"
  },
  {
    "name": "Pácora",
    "state": "Caldas",
    "coordinate": {
      "latitude": 5.5271,
      "longitude": -75.4593
    },
    "geohash32": "d2fr6yhj",
    "geohash64": "0s-09-1p-1m-0y-11-07",
    "geohash128": "1h-17-1f-1r-2h-27"
  },
  {
    "name": "Palestina",
    "state": "Caldas",
    "coordinate": {
      "latitude": 5.0194,
      "longitude": -75.6224
    },
    "geohash32": "d2fhx1v2",
    "geohash64": "0s-09-1n-0f-11-1q-0b",
    "geohash128": "1h-17-11-38-1v-0b"
  },
  {
    "name": "Pensilvania",
    "state": "Caldas",
    "coordinate": {
      "latitude": 5.3835,
      "longitude": -75.1612
    },
    "geohash32": "d2fw9sj3",
    "geohash64": "0s-09-1r-04-1s-12-0d",
    "geohash128": "1h-17-1s-2f-0j-0d"
  },
  {
    "name": "Riosucio",
    "state": "Caldas",
    "coordinate": {
      "latitude": 5.4216,
      "longitude": -75.7032
    },
    "geohash32": "d2fnv6fx",
    "geohash64": "0s-09-1p-0e-16-0x-1n",
    "geohash128": "1h-17-19-2t-2f-3n"
  },
  {
    "name": "Risaralda",
    "state": "Caldas",
    "coordinate": {
      "latitude": 5.1665,
      "longitude": -75.766
    },
    "geohash32": "d2fj7usc",
    "geohash64": "0s-09-1n-0m-1u-1h-1f",
    "geohash128": "1h-17-12-1y-2s-1f"
  },
  {
    "name": "Salamina",
    "state": "Caldas",
    "coordinate": {
      "latitude": 5.4073,
      "longitude": -75.4875
    },
    "geohash32": "d2fqf0re",
    "geohash64": "0s-09-1p-17-00-1f-1r",
    "geohash128": "1h-17-1d-3h-0r-1r"
  },
  {
    "name": "Samaná",
    "state": "Caldas",
    "coordinate": {
      "latitude": 5.4126,
      "longitude": -74.9922
    },
    "geohash32": "d2fwv926",
    "geohash64": "0s-09-1r-0e-19-04-0t",
    "geohash128": "1h-17-1t-2u-12-0t"
  },
  {
    "name": "San José",
    "state": "Caldas",
    "coordinate": {
      "latitude": 5.0858,
      "longitude": -75.7883
    },
    "geohash32": "d2fhgmud",
    "geohash64": "0s-09-1n-07-1m-1n-1m",
    "geohash128": "1h-17-10-3w-3u-1m"
  },
  {
    "name": "Supía",
    "state": "Caldas",
    "coordinate": {
      "latitude": 5.453,
      "longitude": -75.6507
    },
    "geohash32": "d2fpn88y",
    "geohash64": "0s-09-1p-0u-08-0j-1s",
    "geohash128": "1h-17-1c-12-08-3s"
  },
  {
    "name": "Victoria",
    "state": "Caldas",
    "coordinate": {
      "latitude": 5.3165,
      "longitude": -74.911
    },
    "geohash32": "d2fwprg6",
    "geohash64": "0s-09-1r-0b-1r-0y-0v",
    "geohash128": "1h-17-1t-1e-3g-0v"
  },
  {
    "name": "Villamaría",
    "state": "Caldas",
    "coordinate": {
      "latitude": 5.0449,
      "longitude": -75.5146
    },
    "geohash32": "d2fk9w7u",
    "geohash64": "0s-09-1n-14-1w-0g-1c",
    "geohash128": "1h-17-14-2g-07-3c"
  },
  {
    "name": "Viterbo",
    "state": "Caldas",
    "coordinate": {
      "latitude": 5.0624,
      "longitude": -75.8716
    },
    "geohash32": "d2fhc3xf",
    "geohash64": "0s-09-1n-05-13-1u-1v",
    "geohash128": "1h-17-10-2s-3x-1v"
  },
  {
    "name": "Florencia",
    "state": "Caquetá",
    "coordinate": {
      "latitude": 1.6144,
      "longitude": -75.6062
    },
    "geohash32": "d261ptch",
    "geohash64": "0s-08-1h-0u-1t-0r-03",
    "geohash128": "1h-13-03-1f-1c-23"
  },
  {
    "name": "Albania",
    "state": "Caquetá",
    "coordinate": {
      "latitude": 1.3287,
      "longitude": -75.8782
    },
    "geohash32": "d24p93gh",
    "geohash64": "0s-08-15-0n-13-0z-02",
    "geohash128": "1h-12-1b-28-3g-22"
  },
  {
    "name": "Curillo",
    "state": "Caquetá",
    "coordinate": {
      "latitude": 1.0333,
      "longitude": -75.9191
    },
    "geohash32": "d24jbkj7",
    "geohash64": "0s-08-14-0p-0k-12-0y",
    "geohash128": "1h-12-12-2n-2j-0y"
  },
  {
    "name": "El Doncello",
    "state": "Caquetá",
    "coordinate": {
      "latitude": 1.6782,
      "longitude": -75.2847
    },
    "geohash32": "d263wce2",
    "geohash64": "0s-08-1h-1y-0c-0u-08",
    "geohash128": "1h-13-07-32-3e-08"
  },
  {
    "name": "El Paujil",
    "state": "Caquetá",
    "coordinate": {
      "latitude": 1.5701,
      "longitude": -75.3286
    },
    "geohash32": "d262vvg6",
    "geohash64": "0s-08-1h-1e-1v-0y-0u",
    "geohash128": "1h-13-05-2y-3g-0u"
  },
  {
    "name": "Morelia",
    "state": "Caquetá",
    "coordinate": {
      "latitude": 1.4875,
      "longitude": -75.7258
    },
    "geohash32": "d260kyf1",
    "geohash64": "0s-08-1h-09-0y-0w-06",
    "geohash128": "1h-13-01-0r-2f-06"
  },
  {
    "name": "Puerto Rico",
    "state": "Caquetá",
    "coordinate": {
      "latitude": 1.9142,
      "longitude": -75.145
    },
    "geohash32": "d26dfh3p",
    "geohash64": "0s-08-1m-07-0h-07-0n",
    "geohash128": "1h-13-0s-3n-03-2n"
  },
  {
    "name": "Solano",
    "state": "Caquetá",
    "coordinate": {
      "latitude": 0.6994,
      "longitude": -75.2535
    },
    "geohash32": "d247zx64",
    "geohash64": "0s-08-11-1z-1x-0d-0h",
    "geohash128": "1h-12-0g-3z-16-0h"
  },
  {
    "name": "Solita",
    "state": "Caquetá",
    "coordinate": {
      "latitude": 0.874,
      "longitude": -75.6188
    },
    "geohash32": "d24hzr05",
    "geohash64": "0s-08-14-0g-1r-00-0n",
    "geohash128": "1h-12-11-3x-30-0n"
  },
  {
    "name": "Valparaíso",
    "state": "Caquetá",
    "coordinate": {
      "latitude": 1.1951,
      "longitude": -75.7071
    },
    "geohash32": "d24nv1xc",
    "geohash64": "0s-08-15-0e-11-1u-1e",
    "geohash128": "1h-12-19-2s-1x-1e"
  },
  {
    "name": "Popayán",
    "state": "Cauca",
    "coordinate": {
      "latitude": 2.4382,
      "longitude": -76.6132
    },
    "geohash32": "d23tbegg",
    "geohash64": "0s-08-0y-0p-0e-0y-1z",
    "geohash128": "1h-11-3k-2m-1g-1z"
  },
  {
    "name": "Almaguer",
    "state": "Cauca",
    "coordinate": {
      "latitude": 1.917,
      "longitude": -76.8523
    },
    "geohash32": "d236ghvz",
    "geohash64": "0s-08-0t-17-1h-1r-1w",
    "geohash128": "1h-11-2d-3w-0v-3w"
  },
  {
    "name": "Argelia",
    "state": "Cauca",
    "coordinate": {
      "latitude": 2.2556,
      "longitude": -77.2488
    },
    "geohash32": "d23hf4t5",
    "geohash64": "0s-08-0w-07-04-1k-0r",
    "geohash128": "1h-11-30-3j-0t-0r"
  },
  {
    "name": "Balboa",
    "state": "Cauca",
    "coordinate": {
      "latitude": 2.0396,
      "longitude": -77.2168
    },
    "geohash32": "d235dgk3",
    "geohash64": "0s-08-0t-0q-0g-14-0g",
    "geohash128": "1h-11-2b-33-3k-0g"
  },
  {
    "name": "Bolívar",
    "state": "Cauca",
    "coordinate": {
      "latitude": 1.8399,
      "longitude": -76.9689
    },
    "geohash32": "d2362wby",
    "geohash64": "0s-08-0t-11-0w-0p-1u",
    "geohash128": "1h-11-2d-0r-0b-3u"
  },
  {
    "name": "Buenos Aires",
    "state": "Cauca",
    "coordinate": {
      "latitude": 3.014,
      "longitude": -76.6461
    },
    "geohash32": "d293pusj",
    "geohash64": "0s-09-08-1u-1u-1j-05",
    "geohash128": "1h-14-27-1f-2s-25"
  },
  {
    "name": "Cajibío",
    "state": "Cauca",
    "coordinate": {
      "latitude": 2.6227,
      "longitude": -76.5704
    },
    "geohash32": "d23wct7n",
    "geohash64": "0s-08-0z-05-1t-0g-0k",
    "geohash128": "1h-11-3s-2y-17-2k"
  },
  {
    "name": "Caldono",
    "state": "Cauca",
    "coordinate": {
      "latitude": 2.7974,
      "longitude": -76.4832
    },
    "geohash32": "d23xgt68",
    "geohash64": "0s-08-0z-0r-1t-0d-12",
    "geohash128": "1h-11-3u-3y-16-12"
  },
  {
    "name": "Caloto",
    "state": "Cauca",
    "coordinate": {
      "latitude": 3.0359,
      "longitude": -76.4079
    },
    "geohash32": "d299m29m",
    "geohash64": "0s-09-0b-0t-12-0m-0f",
    "geohash128": "1h-14-2m-0s-29-2f"
  },
  {
    "name": "Corinto",
    "state": "Cauca",
    "coordinate": {
      "latitude": 3.173,
      "longitude": -76.2627
    },
    "geohash32": "d29f09eh",
    "geohash64": "0s-09-0c-10-09-0v-02",
    "geohash128": "1h-14-2w-02-1e-22"
  },
  {
    "name": "El Tambo",
    "state": "Cauca",
    "coordinate": {
      "latitude": 2.452,
      "longitude": -76.8103
    },
    "geohash32": "d23munk7",
    "geohash64": "0s-08-0w-1x-0n-14-0z",
    "geohash128": "1h-11-37-2p-0k-0z"
  },
  {
    "name": "Florencia",
    "state": "Cauca",
    "coordinate": {
      "latitude": 1.6832,
      "longitude": -77.0733
    },
    "geohash32": "d231w4kv",
    "geohash64": "0s-08-0s-0y-04-15-1f",
    "geohash128": "1h-11-23-31-0k-3f"
  },
  {
    "name": "Guachene",
    "state": "Cauca",
    "coordinate": {
      "latitude": 3.1333,
      "longitude": -76.3927
    },
    "geohash32": "d299vdks",
    "geohash64": "0s-09-0b-0x-1d-15-11",
    "geohash128": "1h-14-2m-2v-0k-31"
  },
  {
    "name": "Guapi",
    "state": "Cauca",
    "coordinate": {
      "latitude": 2.5708,
      "longitude": -77.8854
    },
    "geohash32": "d22weevx",
    "geohash64": "0s-08-0r-06-1e-1r-1p",
    "geohash128": "1h-11-1s-3c-1v-3p"
  },
  {
    "name": "Inzá",
    "state": "Cauca",
    "coordinate": {
      "latitude": 2.5545,
      "longitude": -76.0672
    },
    "geohash32": "d23yt119",
    "geohash64": "0s-08-0z-1d-11-02-14",
    "geohash128": "1h-11-3x-28-11-14"
  },
  {
    "name": "Jambaló",
    "state": "Cauca",
    "coordinate": {
      "latitude": 2.7798,
      "longitude": -76.3282
    },
    "geohash32": "d23xz459",
    "geohash64": "0s-08-0z-0z-14-0b-15",
    "geohash128": "1h-11-3v-3t-05-15"
  },
  {
    "name": "La Sierra",
    "state": "Cauca",
    "coordinate": {
      "latitude": 2.1783,
      "longitude": -76.7626
    },
    "geohash32": "d23kmhx1",
    "geohash64": "0s-08-0w-19-1h-1u-07",
    "geohash128": "1h-11-35-0w-0x-07"
  },
  {
    "name": "La Vega",
    "state": "Cauca",
    "coordinate": {
      "latitude": 2.0063,
      "longitude": -76.7803
    },
    "geohash32": "d237kv4r",
    "geohash64": "0s-08-0t-1t-0v-09-0x",
    "geohash128": "1h-11-2g-0q-34-2x"
  },
  {
    "name": "López",
    "state": "Cauca",
    "coordinate": {
      "latitude": 2.8454,
      "longitude": -77.2479
    },
    "geohash32": "d2904jvz",
    "geohash64": "0s-09-08-02-0j-1r-1x",
    "geohash128": "1h-14-20-14-1v-3x"
  },
  {
    "name": "Mercaderes",
    "state": "Cauca",
    "coordinate": {
      "latitude": 1.8017,
      "longitude": -77.1703
    },
    "geohash32": "d2345zyr",
    "geohash64": "0s-08-0t-02-1z-1x-0x",
    "geohash128": "1h-11-28-1g-3y-2x"
  },
  {
    "name": "Miranda",
    "state": "Cauca",
    "coordinate": {
      "latitude": 3.2499,
      "longitude": -76.2281
    },
    "geohash32": "d29f3rsk",
    "geohash64": "0s-09-0c-11-1r-1j-0b",
    "geohash128": "1h-14-2w-0x-3s-2b"
  },
  {
    "name": "Morales",
    "state": "Cauca",
    "coordinate": {
      "latitude": 2.757,
      "longitude": -76.6172
    },
    "geohash32": "d23x8tch",
    "geohash64": "0s-08-0z-0n-0t-0r-01",
    "geohash128": "1h-11-3u-26-1c-21"
  },
  {
    "name": "Padilla",
    "state": "Cauca",
    "coordinate": {
      "latitude": 3.2204,
      "longitude": -76.3139
    },
    "geohash32": "d29dr6mb",
    "geohash64": "0s-09-0c-0c-16-16-1b",
    "geohash128": "1h-14-2t-1t-2m-1b"
  },
  {
    "name": "Patía",
    "state": "Cauca",
    "coordinate": {
      "latitude": 2.0689,
      "longitude": -77.0527
    },
    "geohash32": "d235y8eu",
    "geohash64": "0s-08-0t-0z-08-0v-1b",
    "geohash128": "1h-11-2c-3k-0e-3b"
  },
  {
    "name": "Piamonte",
    "state": "Cauca",
    "coordinate": {
      "latitude": 1.12,
      "longitude": -76.3213
    },
    "geohash32": "d21wr7bs",
    "geohash64": "0s-08-0g-0c-17-0p-10",
    "geohash128": "1h-10-3t-1t-3b-30"
  },
  {
    "name": "Piendamó",
    "state": "Cauca",
    "coordinate": {
      "latitude": 2.6392,
      "longitude": -76.5306
    },
    "geohash32": "d23x482n",
    "geohash64": "0s-08-0z-0k-08-05-0h",
    "geohash128": "1h-11-3u-12-02-2h"
  },
  {
    "name": "Puerto Tejada",
    "state": "Cauca",
    "coordinate": {
      "latitude": 3.2311,
      "longitude": -76.4167
    },
    "geohash32": "d29dmh5n",
    "geohash64": "0s-09-0c-09-1h-0c-0j",
    "geohash128": "1h-14-2t-0w-05-2j"
  },
  {
    "name": "Puracé",
    "state": "Cauca",
    "coordinate": {
      "latitude": 2.3425,
      "longitude": -76.4958
    },
    "geohash32": "d23t763q",
    "geohash64": "0s-08-0y-0m-16-07-0u",
    "geohash128": "1h-11-3k-1t-23-2u"
  },
  {
    "name": "Rosas",
    "state": "Cauca",
    "coordinate": {
      "latitude": 2.2609,
      "longitude": -76.7399
    },
    "geohash32": "d23kvexd",
    "geohash64": "0s-08-0w-1e-1e-1u-1m",
    "geohash128": "1h-11-35-2v-1x-1m"
  },
  {
    "name": "Santa Rosa",
    "state": "Cauca",
    "coordinate": {
      "latitude": 1.7027,
      "longitude": -76.5739
    },
    "geohash32": "d2399tbw",
    "geohash64": "0s-08-0u-0n-1t-0p-1j",
    "geohash128": "1h-11-2k-2f-1b-3j"
  },
  {
    "name": "Silvia",
    "state": "Cauca",
    "coordinate": {
      "latitude": 2.6156,
      "longitude": -76.3826
    },
    "geohash32": "d23wvu5u",
    "geohash64": "0s-08-0z-0e-1u-0c-1c",
    "geohash128": "1h-11-3t-2y-25-3c"
  },
  {
    "name": "Sotara",
    "state": "Cauca",
    "coordinate": {
      "latitude": 2.2546,
      "longitude": -76.6109
    },
    "geohash32": "d23sbdmt",
    "geohash64": "0s-08-0y-05-0d-17-17",
    "geohash128": "1h-11-3h-2m-0m-37"
  },
  {
    "name": "Suárez",
    "state": "Cauca",
    "coordinate": {
      "latitude": 2.954,
      "longitude": -76.6964
    },
    "geohash32": "d292y9z2",
    "geohash64": "0s-09-08-1g-09-1y-0b",
    "geohash128": "1h-14-25-3k-1z-0b"
  },
  {
    "name": "Sucre",
    "state": "Cauca",
    "coordinate": {
      "latitude": 2.038,
      "longitude": -76.9245
    },
    "geohash32": "d2379e12",
    "geohash64": "0s-08-0t-1n-1e-02-08",
    "geohash128": "1h-11-2f-2c-11-08"
  },
  {
    "name": "Timbío",
    "state": "Cauca",
    "coordinate": {
      "latitude": 2.3502,
      "longitude": -76.6834
    },
    "geohash32": "d23mr5bf",
    "geohash64": "0s-08-0w-1v-15-0n-1t",
    "geohash128": "1h-11-37-1t-1b-1t"
  },
  {
    "name": "Timbiquí",
    "state": "Cauca",
    "coordinate": {
      "latitude": 2.7717,
      "longitude": -77.6654
    },
    "geohash32": "d22zb8tf",
    "geohash64": "0s-08-0r-1p-08-1k-1s",
    "geohash128": "1h-11-1y-2k-0t-1s"
  },
  {
    "name": "Toribio",
    "state": "Cauca",
    "coordinate": {
      "latitude": 2.9548,
      "longitude": -76.2684
    },
    "geohash32": "d29bb3zh",
    "geohash64": "0s-09-0b-15-03-1z-01",
    "geohash128": "1h-14-2n-2h-3z-21"
  },
  {
    "name": "Totoró",
    "state": "Cauca",
    "coordinate": {
      "latitude": 2.5159,
      "longitude": -76.4044
    },
    "geohash32": "d23wm6h0",
    "geohash64": "0s-08-0z-09-16-10-00",
    "geohash128": "1h-11-3t-0t-2h-00"
  },
  {
    "name": "Villa Rica",
    "state": "Cauca",
    "coordinate": {
      "latitude": 3.1748,
      "longitude": -76.462
    },
    "geohash32": "d29dh1fn",
    "geohash64": "0s-09-0c-08-01-0x-0j",
    "geohash128": "1h-14-2t-00-1f-2j"
  },
  {
    "name": "Valledupar",
    "state": "Cesar",
    "coordinate": {
      "latitude": 10.4631,
      "longitude": -73.2532
    },
    "geohash32": "d3ggt0dx",
    "geohash64": "0s-0e-1v-1w-10-0t-1r",
    "geohash128": "1h-1r-2z-28-0d-3r"
  },
  {
    "name": "Aguachica",
    "state": "Cesar",
    "coordinate": {
      "latitude": 8.3084,
      "longitude": -73.6166
    },
    "geohash32": "d37xkb6p",
    "geohash64": "0s-0d-1z-0t-0b-0e-0p",
    "geohash128": "1h-1m-3v-0k-26-2p"
  },
  {
    "name": "Agustín Codazzi",
    "state": "Cesar",
    "coordinate": {
      "latitude": 10.0367,
      "longitude": -73.2356
    },
    "geohash32": "d3gcj7pk",
    "geohash64": "0s-0e-1u-1s-17-1c-0b",
    "geohash128": "1h-1r-2r-09-3p-2b"
  },
  {
    "name": "Astrea",
    "state": "Cesar",
    "coordinate": {
      "latitude": 9.4983,
      "longitude": -73.9759
    },
    "geohash32": "d3eqh9h7",
    "geohash64": "0s-0e-1e-18-09-10-0z",
    "geohash128": "1h-1q-3e-02-1h-0z"
  },
  {
    "name": "Becerril",
    "state": "Cesar",
    "coordinate": {
      "latitude": 9.7041,
      "longitude": -73.2793
    },
    "geohash32": "d3ezhqxd",
    "geohash64": "0s-0e-1g-1s-0q-1u-1k",
    "geohash128": "1h-1q-3z-05-2x-1k"
  },
  {
    "name": "Bosconia",
    "state": "Cesar",
    "coordinate": {
      "latitude": 9.9689,
      "longitude": -73.8836
    },
    "geohash32": "d3g2wwz9",
    "geohash64": "0s-0e-1s-1f-0w-1y-14",
    "geohash128": "1h-1r-25-37-0z-14"
  },
  {
    "name": "Chimichagua",
    "state": "Cesar",
    "coordinate": {
      "latitude": 9.2578,
      "longitude": -73.8123
    },
    "geohash32": "d3es8m7d",
    "geohash64": "0s-0e-1f-04-0m-0f-1j",
    "geohash128": "1h-1q-3h-24-37-1j"
  },
  {
    "name": "Chiriguaná",
    "state": "Cesar",
    "coordinate": {
      "latitude": 9.3624,
      "longitude": -73.6031
    },
    "geohash32": "d3etm07g",
    "geohash64": "0s-0e-1f-0t-10-0f-1x",
    "geohash128": "1h-1q-3m-0s-07-1x"
  },
  {
    "name": "Curumaní",
    "state": "Cesar",
    "coordinate": {
      "latitude": 9.1999,
      "longitude": -73.5427
    },
    "geohash32": "d3esq6zc",
    "geohash64": "0s-0e-1f-0c-06-1y-1d",
    "geohash128": "1h-1q-3j-1j-2z-1d"
  },
  {
    "name": "El Copey",
    "state": "Cesar",
    "coordinate": {
      "latitude": 10.1503,
      "longitude": -73.9614
    },
    "geohash32": "d3g3szyc",
    "geohash64": "0s-0e-1s-1w-0z-1w-1g",
    "geohash128": "1h-1r-27-27-3y-1g"
  },
  {
    "name": "El Paso",
    "state": "Cesar",
    "coordinate": {
      "latitude": 9.6572,
      "longitude": -73.7468
    },
    "geohash32": "d3ewcy51",
    "geohash64": "0s-0e-1g-05-1y-0b-06",
    "geohash128": "1h-1q-3s-2z-25-06"
  },
  {
    "name": "Gamarra",
    "state": "Cesar",
    "coordinate": {
      "latitude": 8.3228,
      "longitude": -73.7427
    },
    "geohash32": "d37x3gn5",
    "geohash64": "0s-0d-1z-0j-1g-18-0r",
    "geohash128": "1h-1m-3u-0v-3n-0r"
  },
  {
    "name": "González",
    "state": "Cesar",
    "coordinate": {
      "latitude": 8.3894,
      "longitude": -73.3799
    },
    "geohash32": "d37zdpnr",
    "geohash64": "0s-0d-1z-1q-0p-19-0z",
    "geohash128": "1h-1m-3y-35-1n-2z"
  },
  {
    "name": "La Gloria",
    "state": "Cesar",
    "coordinate": {
      "latitude": 8.6187,
      "longitude": -73.8027
    },
    "geohash32": "d3e908fx",
    "geohash64": "0s-0e-1b-0h-08-0x-1p",
    "geohash128": "1h-1q-2k-02-0f-3p"
  },
  {
    "name": "Manaure",
    "state": "Cesar",
    "coordinate": {
      "latitude": 10.3909,
      "longitude": -72.992
    },
    "geohash32": "d3u5558g",
    "geohash64": "0s-0g-0j-0k-15-0h-1w",
    "geohash128": "1h-1x-0b-19-18-1w"
  },
  {
    "name": "Pailitas",
    "state": "Cesar",
    "coordinate": {
      "latitude": 8.9565,
      "longitude": -73.6255
    },
    "geohash32": "d3eduw7x",
    "geohash64": "0s-0e-1c-0e-0w-0g-1n",
    "geohash128": "1h-1q-2t-2r-07-3n"
  },
  {
    "name": "Pelaya",
    "state": "Cesar",
    "coordinate": {
      "latitude": 8.6882,
      "longitude": -73.6645
    },
    "geohash32": "d3e97txh",
    "geohash64": "0s-0e-1b-0m-1t-1v-02",
    "geohash128": "1h-1q-2k-1y-1x-22"
  },
  {
    "name": "Pueblo Bello",
    "state": "Cesar",
    "coordinate": {
      "latitude": 10.4171,
      "longitude": -73.5804
    },
    "geohash32": "d3gem8kk",
    "geohash64": "0s-0e-1v-0t-18-15-0b",
    "geohash128": "1h-1r-2v-0u-0k-2b"
  },
  {
    "name": "La Paz",
    "state": "Cesar",
    "coordinate": {
      "latitude": 10.3844,
      "longitude": -73.1733
    },
    "geohash32": "d3ggnfkv",
    "geohash64": "0s-0e-1v-1u-0f-15-1e",
    "geohash128": "1h-1r-2z-13-2k-3e"
  },
  {
    "name": "San Alberto",
    "state": "Cesar",
    "coordinate": {
      "latitude": 7.7611,
      "longitude": -73.3922
    },
    "geohash32": "d37u1uv7",
    "geohash64": "0s-0d-1y-10-1u-1q-0z",
    "geohash128": "1h-1m-3n-0f-2v-0z"
  },
  {
    "name": "San Diego",
    "state": "Cesar",
    "coordinate": {
      "latitude": 10.3362,
      "longitude": -73.182
    },
    "geohash32": "d3gfy9wk",
    "geohash64": "0s-0e-1v-1g-09-1t-0c",
    "geohash128": "1h-1r-2x-3k-1w-2c"
  },
  {
    "name": "San Martín",
    "state": "Cesar",
    "coordinate": {
      "latitude": 8.0015,
      "longitude": -73.5113
    },
    "geohash32": "d37tx0ws",
    "geohash64": "0s-0d-1y-0y-10-1t-12",
    "geohash128": "1h-1m-3m-38-0w-32"
  },
  {
    "name": "Tamalameque",
    "state": "Cesar",
    "coordinate": {
      "latitude": 8.8522,
      "longitude": -73.8123
    },
    "geohash32": "d3ed277x",
    "geohash64": "0s-0e-1c-01-07-0g-1p",
    "geohash128": "1h-1q-2s-0j-37-3p"
  },
  {
    "name": "Montería",
    "state": "Córdoba",
    "coordinate": {
      "latitude": 8.748,
      "longitude": -75.8814
    },
    "geohash32": "d3d1c28b",
    "geohash64": "0s-0e-10-0p-12-0h-19",
    "geohash128": "1h-1q-02-2s-28-19"
  },
  {
    "name": "Ayapel",
    "state": "Córdoba",
    "coordinate": {
      "latitude": 8.3137,
      "longitude": -75.1398
    },
    "geohash32": "d36x61ky",
    "geohash64": "0s-0d-1r-0m-01-15-1t",
    "geohash128": "1h-1m-1u-1h-1k-3t"
  },
  {
    "name": "Buenavista",
    "state": "Córdoba",
    "coordinate": {
      "latitude": 8.1915,
      "longitude": -75.4338
    },
    "geohash32": "d36qe7ny",
    "geohash64": "0s-0d-1p-16-17-19-1t",
    "geohash128": "1h-1m-1d-39-3n-3t"
  },
  {
    "name": "Canalete",
    "state": "Córdoba",
    "coordinate": {
      "latitude": 8.7856,
      "longitude": -76.2406
    },
    "geohash32": "d39ccp77",
    "geohash64": "0s-0e-0b-1p-1p-0f-0x",
    "geohash128": "1h-1n-2q-2x-17-0x"
  },
  {
    "name": "Cereté",
    "state": "Córdoba",
    "coordinate": {
      "latitude": 8.8848,
      "longitude": -75.7905
    },
    "geohash32": "d3d4e37j",
    "geohash64": "0s-0e-11-06-13-0g-05",
    "geohash128": "1h-1q-08-38-37-25"
  },
  {
    "name": "Chimá",
    "state": "Córdoba",
    "coordinate": {
      "latitude": 9.1489,
      "longitude": -75.6284
    },
    "geohash32": "d3dhp190",
    "geohash64": "0s-0e-14-0b-11-0k-00",
    "geohash128": "1h-1q-11-18-19-00"
  },
  {
    "name": "Chinú",
    "state": "Córdoba",
    "coordinate": {
      "latitude": 9.1057,
      "longitude": -75.3981
    },
    "geohash32": "d3d7u38u",
    "geohash64": "0s-0e-11-1x-03-0j-19",
    "geohash128": "1h-1q-0g-2h-38-39"
  },
  {
    "name": "Cotorra",
    "state": "Córdoba",
    "coordinate": {
      "latitude": 9.0389,
      "longitude": -75.7897
    },
    "geohash32": "d3d57m7x",
    "geohash64": "0s-0e-11-0m-1m-0g-1n",
    "geohash128": "1h-1q-0b-1w-37-3n"
  },
  {
    "name": "Lorica",
    "state": "Córdoba",
    "coordinate": {
      "latitude": 9.2365,
      "longitude": -75.8135
    },
    "geohash32": "d3dhdc6q",
    "geohash64": "0s-0e-14-06-0c-0e-0t",
    "geohash128": "1h-1q-10-32-36-2t"
  },
  {
    "name": "Los Córdobas",
    "state": "Córdoba",
    "coordinate": {
      "latitude": 8.894,
      "longitude": -76.3546
    },
    "geohash32": "d39dwe07",
    "geohash64": "0s-0e-0c-0f-0e-00-0w",
    "geohash128": "1h-1n-2t-33-10-0w"
  },
  {
    "name": "Momil",
    "state": "Córdoba",
    "coordinate": {
      "latitude": 9.2377,
      "longitude": -75.6749
    },
    "geohash32": "d3dhtcxj",
    "geohash64": "0s-0e-14-0d-1c-1v-07",
    "geohash128": "1h-1q-11-2b-3x-27"
  },
  {
    "name": "Moñitos",
    "state": "Córdoba",
    "coordinate": {
      "latitude": 9.2455,
      "longitude": -76.1302
    },
    "geohash32": "d39uee5d",
    "geohash64": "0s-0e-0f-16-1e-0b-1m",
    "geohash128": "1h-1n-3n-3c-15-1m"
  },
  {
    "name": "Planeta Rica",
    "state": "Córdoba",
    "coordinate": {
      "latitude": 8.4115,
      "longitude": -75.5851
    },
    "geohash32": "d36rb528",
    "geohash64": "0s-0d-1p-1p-05-04-11",
    "geohash128": "1h-1m-1f-2j-12-11"
  },
  {
    "name": "Pueblo Nuevo",
    "state": "Córdoba",
    "coordinate": {
      "latitude": 8.5012,
      "longitude": -75.508
    },
    "geohash32": "d3d23g8g",
    "geohash64": "0s-0e-10-11-1g-0h-1w",
    "geohash128": "1h-1q-04-0v-38-1w"
  },
  {
    "name": "Puerto Escondido",
    "state": "Córdoba",
    "coordinate": {
      "latitude": 9.0181,
      "longitude": -76.2641
    },
    "geohash32": "d39g29dn",
    "geohash64": "0s-0e-0c-1j-09-0t-0k",
    "geohash128": "1h-1n-2y-0k-1d-2k"
  },
  {
    "name": "Purísima",
    "state": "Córdoba",
    "coordinate": {
      "latitude": 9.2366,
      "longitude": -75.7219
    },
    "geohash32": "d3dhsckz",
    "geohash64": "0s-0e-14-0d-0c-15-1y",
    "geohash128": "1h-1q-11-22-3k-3y"
  },
  {
    "name": "Sahagún",
    "state": "Córdoba",
    "coordinate": {
      "latitude": 8.9462,
      "longitude": -75.4427
    },
    "geohash32": "d3d6gk87",
    "geohash64": "0s-0e-11-17-1k-0h-0w",
    "geohash128": "1h-1q-0d-3w-28-0w"
  },
  {
    "name": "San Andrés Sotavento",
    "state": "Córdoba",
    "coordinate": {
      "latitude": 9.1218,
      "longitude": -75.5163
    },
    "geohash32": "d3d7csdd",
    "geohash64": "0s-0e-11-1p-1s-0s-1k",
    "geohash128": "1h-1q-0f-2y-0d-1k"
  },
  {
    "name": "San Antero",
    "state": "Córdoba",
    "coordinate": {
      "latitude": 9.3741,
      "longitude": -75.7589
    },
    "geohash32": "d3djk4d0",
    "geohash64": "0s-0e-14-0t-04-0s-00",
    "geohash128": "1h-1q-13-0j-0d-00"
  },
  {
    "name": "San Pelayo",
    "state": "Córdoba",
    "coordinate": {
      "latitude": 8.9583,
      "longitude": -75.8363
    },
    "geohash32": "d3d4fqc9",
    "geohash64": "0s-0e-11-07-0q-0q-17",
    "geohash128": "1h-1q-08-3p-2c-17"
  },
  {
    "name": "Tierralta",
    "state": "Córdoba",
    "coordinate": {
      "latitude": 8.1736,
      "longitude": -76.0592
    },
    "geohash32": "d33ympzq",
    "geohash64": "0s-0d-0z-19-1p-1z-0v",
    "geohash128": "1h-1j-3x-0x-1z-2v"
  },
  {
    "name": "Tuchin",
    "state": "Córdoba",
    "coordinate": {
      "latitude": 9.1866,
      "longitude": -75.5547
    },
    "geohash32": "d3dk28qe",
    "geohash64": "0s-0e-14-11-08-1d-1r",
    "geohash128": "1h-1q-14-0k-0q-1r"
  },
  {
    "name": "Valencia",
    "state": "Córdoba",
    "coordinate": {
      "latitude": 8.258,
      "longitude": -76.1493
    },
    "geohash32": "d33ygpmf",
    "geohash64": "0s-0d-0z-17-1p-16-1s",
    "geohash128": "1h-1j-3w-3x-1m-1s"
  },
  {
    "name": "Anapoima",
    "state": "Cundinamarca",
    "coordinate": {
      "latitude": 4.5203,
      "longitude": -74.5394
    },
    "geohash32": "d2fcxyfh",
    "geohash64": "0s-09-1k-1y-1y-0x-01",
    "geohash128": "1h-17-0r-3g-2f-21"
  },
  {
    "name": "Arbeláez",
    "state": "Cundinamarca",
    "coordinate": {
      "latitude": 4.2725,
      "longitude": -74.4151
    },
    "geohash32": "d2g069u9",
    "geohash64": "0s-09-1s-03-09-1n-14",
    "geohash128": "1h-17-20-1k-1u-14"
  },
  {
    "name": "Beltrán",
    "state": "Cundinamarca",
    "coordinate": {
      "latitude": 4.8017,
      "longitude": -74.7418
    },
    "geohash32": "d2fg74ne",
    "geohash64": "0s-09-1m-1m-14-18-1r",
    "geohash128": "1h-17-0y-1t-0n-1r"
  },
  {
    "name": "Bituima",
    "state": "Cundinamarca",
    "coordinate": {
      "latitude": 4.8725,
      "longitude": -74.5393
    },
    "geohash32": "d2fgxz40",
    "geohash64": "0s-09-1m-1y-1z-08-02",
    "geohash128": "1h-17-0z-3g-34-02"
  },
  {
    "name": "Bojacá",
    "state": "Cundinamarca",
    "coordinate": {
      "latitude": 4.7318,
      "longitude": -74.3413
    },
    "geohash32": "d2g4um6k",
    "geohash64": "0s-09-1t-0e-0m-0e-09",
    "geohash128": "1h-17-29-2n-36-29"
  },
  {
    "name": "Cabrera",
    "state": "Cundinamarca",
    "coordinate": {
      "latitude": 3.986,
      "longitude": -74.4828
    },
    "geohash32": "d2en9jek",
    "geohash64": "0s-09-1e-04-1j-0v-08",
    "geohash128": "1h-16-38-2d-1e-28"
  },
  {
    "name": "Cachipay",
    "state": "Cundinamarca",
    "coordinate": {
      "latitude": 4.7231,
      "longitude": -74.4592
    },
    "geohash32": "d2g4ceu6",
    "geohash64": "0s-09-1t-05-1e-1n-0u",
    "geohash128": "1h-17-28-2v-1u-0u"
  },
  {
    "name": "Cajicá",
    "state": "Cundinamarca",
    "coordinate": {
      "latitude": 4.9186,
      "longitude": -74.028
    },
    "geohash32": "d2g7grqk",
    "geohash64": "0s-09-1t-1r-1r-1e-0c",
    "geohash128": "1h-17-2f-3x-3q-2c"
  },
  {
    "name": "Caparrapí",
    "state": "Cundinamarca",
    "coordinate": {
      "latitude": 5.3464,
      "longitude": -74.4915
    },
    "geohash32": "d2gn2vkc",
    "geohash64": "0s-09-1x-01-0v-14-1f",
    "geohash128": "1h-17-38-0q-3k-1f"
  },